$GPRMC,,V,,,,,,,,,,N*53
$GPVTG,,,,,,,,,N*30
$GPGGA,,,,,,0,00,9,99.99,99.99*30
$GPGSV,1,1,00*79
$GPGLL,,,,,,V,N*64
$GPTXT,01,01,02,ANTSTATUS=INIT*25
$GPRMC,,V,,,,,,,,,,N*53
$GPVTG,,,,,,,,,N*30
$GPGGA,,,,,,0,00,99.99,,,,,,*48
$GPGSA,A,1,,,,,,,,,,,,,99.99,99.99,99.99*30
$GPGSV,1,1,00*79
$GPGLL,,,,,,V,N*64
$GPTXT,01,01,02,ANTSTATUS=OK*3B
$GPRMC,,V,,,,,,,,,,N*53
$GPVTG,,,,,,,,,N*30
$GPGGA,,,,,,0,00,99.99,,,,,,*48
$GPGSA,A,1,,,,,,,,,,,,,99.99,99.99,99.99*30
$GPGSV,1,1,00*79
$GPGLL,,,,,,V,N*64
$GPRMC,,V,,,,,,,,,,N*53
$GPVTG,,,,,,,,,N*30
$GPGGA,,,,,,0,00,99V,1,1,00*79
$GPGLL,,,,,,V,N*64
$GPRMC,,V,,,,,,,,,,N*53
$GPVTG,,,,,,,,,N*30
$GPGGA,,,,,,0,00,99.99,,,,,,*48
$GPGSA,A,1,,,,,,,,,,,,,99.99,99.99,99.99*30
$GPGSV,1,1,03,22,,,44,31,,,39,33,,,40*76
$GPGLL,,,,,,V,N*64
$GPRMC,,V,,,,,,,,,,N*53
$GPVTG,,,,,,,,,N*30
$GPGGA,,,,,,0,00,99.99,,,,,,*48
$GPGSA,A,1,,,,,,,,,,,,,99.99,99.99,99.99*30
$GPGSV,1,1,03,22,,,44,31,,,45,33,,,40*7D
$GPGLL,,,,,,V,N*64
$GPRMC,,V,,,,,,,,,,N*53
$GPVTG,,,,,,,,,N*30
$GPGGA,,,,,,0,00,99.99,,,,,,*48
$GPGSA,A,1,,,,,,,,,,,,,99.99,99.99,99.99*30
$GPGSV,1,1,03,22,,,44,31,,,45,33,,,40*7D
$GPGLL,,,,,,V,N*64
$GPRMC,,V,,,,,,,,,,N*53
$GPVTG,,,,,,,,,N*30
$GPGGA,,,,,,0,00,99.99,,,,,,*48
$GPGSA,A,1,,,,,,,,,,,,,99.99,99.99,99.99*30
$GPGSV,1,1,03,22,,,44,31,,,45,33,,,40*7D
$GPGLL,,,,,,V,N*64
$GPRMC,,V,,,,,,,,,,N*53
$GPVTG,,,,,,,,,N*30
$GPGGA,,,,,,0,00,99.99,,,,,,*48
$GPGSA,A,1,,,,,,,,,,,,,99.99,99.99,99.99*30
$GPGSV,1,1,03,22,,,44,31,,,45,33,,,40*7D
$G$GPRMC,,V,,,,,,,,,,N*53
$GPVTG,,,,,,,,,N*30
$GPGGA,,,,,,0,00,99.99,,,,,,*48
$GPGSA,A,1,,,,,,,,,,,,,99.99,99.99,99.99*30
$GPGSV,1,1,03,22,,,44,31,,,45,33,,,40*7D
$GPGLL,,,,,,V,N*64
$GPRMC,,V,,,,,,,,,,N*53
$GPVTG,,,,,,,,,N*30
$GPGGA,,,,,,0,00,99.99,,,,,,*48
$GPGSA,A,1,,,,,,,,,,,,,99.99,99.99,99.99*30
$GPGSV,1,1,04,01,,,29,22,,,44,31,,,45,33,,,40*70
$GPGLL,,,,,,V,N*64
$GPRMC,,V,,,,,,,,,,N*53
$GPVTG,,,,,,,,,N*30
$GPGGA,,,,,,0,00,99.99,,,,,,*48
$GPGSA,A,1,,,,,,,,,,,,,99.99,99.99,99.99*30
$GPGSV,2,1,07,01,,,27,04,,,30,14,,,41,22,,,44*7E
$GPGSV,2,2,07,27,,,35,31,,,45,33,,,40*7A
$GPGLL,,,,,,V,N*64
$GPRMC,,V,,,,,,,,,,N*53
$GPVTG,,,,,,,,,N*30
$GPGGA,,,,,,0,00,99.99,,,,,,*48
$GPGSA,A,1,,,,,,,,,,,,,99.99,99.99,99.99*30
$GPGSV,2,1,08,01,,,26,04,,,30,07,,,28,14,,,41*7D
$GPGSV,2,2,08,22,,,44,27,,,35,31,,,45,33,,,40*75
$GPGLL,,,,,,V,N*64
$GPRMC,,V,,,,,,,,,,N*53
$GPVTG,,,,,,,,,N*30
$GPGGA,,,,,,0,00,99.99,,,,,,*48
$GPGSA,A,1,,,,,,,,,,,,,99.99,99.
$GPGSV,2,2,07,27,,,35,31,,,45,33,,,40*7A
$GPGLL,,,,,,V,N*64
$GPRMC,,V,,,,,,,,,,N*53
$GPVTG,,,,,,,,,N*30
$GPGGA,,,,,,0,00,99.99,,,,,,*48
$GPGSA,A,1,,,,,,,,,,,,,99.99,99.99,99.99*30
$GPGSV,2,1,07,01,,,24,04,,,29,14,,,41,22,,,44*75
$GPGSV,2,2,07,27,,,35,31,,,45,33,,,40*7A
$GPGLL,,,,,,V,N*64
$GPRMC,191016.51,V,,,,,,,,,,N*77
$GPVTG,,,,,,,,,N*30
$GPGGA,191016.51,,,,,0,00,99.99,,,,,,*6C
$GPGSA,A,1,,,,,,,,,,,,,99.99,99.99,99.99*30
$GPGSV,2,1,07,04,,,28,11,,,27,14,,,41,22,,,44*76
$GPGSV,2,2,07,27,,,35,31,,,45,33,,,40*7A
$GPGLL,,,,,191016.51,V,N*40
$GPRMC,191017.00,V,,,,,,,290415,,,N*79
$GPVTG,,,,,,,,,N*30
$GPGGA,191017.00,,,,,0,00,99.99,,,,,,*69
$GPGSA,A,1,,,,,,,,,,,,,99.99,99.99,99.99*30
$GPGSV,2,1,07,04,,,27,11,,,26,14,,,$GPRMC,191018.00,V,,,,,,,290415,,,N*76
$GPVTG,,,,,,,,,N*30
$GPGGA,191018.00,,,,,0,00,99.99,,,,,,*66
$GPGSA,A,1,,,,,,,,,,,,,99.99,99.99,99.99*30
$GPGSV,2,1,08,04,,,27,11,,,25,13,,,26,14,,,41*72
$GPGSV,2,2,08,22,,,44,27,,,35,31,,,45,33,,,40*75
$GPGLL,,,,,191018.00,V,N*4A
$GPRMC,191019.00,V,,,,,,,290415,,,N*77
$GPVTG,,,,,,,,,N*30
$GPGGA,191019.00,,,,,0,00,99.99,,,,,,*67
$GPGSA,A,1,,,,,,,,,,,,,99.99,99.99,99.99*30
$GPGSV,2,1,06,04,,,26,14,,,41,22,,,44,27,,,35*7F
$GPGSV,2,2,06,31,,,45,33,,,40*78
$GPGLL,,,,,191019.00,V,N*4B
$GPRMC,191020.00,V,,,,,,,290415,,,N*7D
$GPVTG,,,,,,,,,N*30
$GPGGA,191020.00,,,,,0,00,99.99,,,,,,*6D
$GPGSA,A,1,,,,,,,,,,,,,99.99,99.99,99.99*30
$GPGSV,2,1,08,04,,,26,14,,,41,19,,,32,20,,,28*73
$GPGSV,2,2,08,22,,,44,27,,,35,31,,,45,33,,,40*75
$GPGLL,,,,,191020.00,V,N*41
$GPRMC,191021.00,V,,,,,,,290415,,,N*7C
$GPVTG,,,,,,,,,N*30
$GPGGA,191021.00,,,,,0,00,99.99,,,,,,*6C
$GPGSA,99,99.99*30
$GPGSV,2,1,07,04,,,26,14,,,40,19,,,31,22,,,44*76
$GPGSV,2,2,07,27,,,35,31,,,44,33,,,40*7B
$GPGLL,,,,,191021.00,V,N*40
$GPRMC,191022.00,V,,,,,,,290415,,,N*7F
$GPVTG,,,,,,,,,N*30
$GPGGA,191022.00,,,,,0,00,99.99,,,,,,*6F
$GPGSA,A,1,,,,,,,,,,,,,99.99,99.99,99.99*30
$GPGSV,2,1,07,04,,,26,14,,,40,19,,,30,22,,,44*77
$GPGSV,2,2,07,27,,,34,31,,,44,33,,,40*7A
$GPGLL,,,,,191022.00,V,N*43
$GPRMC,191023.00,V,,,,,,,290415,,,N*7E
$GPVTG,,,,,,,,,N*30
$GPGGA,191023.00,,,,,0,00,99.99,,,,,,*6E
$GPGSA,A,1,,,,,,,,,,,,,99.99,99.99,99.99*30
$GPGSV,2,1,07,04,,,26,14,,,40,19,,,30,22,,,44*77
$GPGSV,2,2,07,27,,,35,31,,,44,33,,,40*7B
$GPGLL,,,,,191023.00,V,N*42
$GPRMC,191024.00,V,,,,,,,290415,,,N*79
$GPVTG,,,,,,,,,N*30
$GPGGA,191024.00,,,,,0,00,99.99,,,,,,*69
$GPGSA,A,1,,,,,,,,,,,,,99.99,99.99,99.99*30
$GPGSV,2,1,07,04,,,26,14,,,40,19,,,29,22,,,44*7F
,V,N*45
$GPRMC,191025.00,V,,,,,,,290415,,,N*78
$GPVTG,,,,,,,,,N*30
$GPGGA,191025.00,,,,,0,00,99.99,,,,,,*68
$GPGSA,A,1,,,,,,,,,,,,,99.99,99.99,99.99*30
$GPGSV,3,1,09,04,,,26,14,,,40,19,,,29,22,,,44*70
$GPGSV,3,2,09,27,,,34,29,,,25,30,,,28,31,,,44*74
$GPGSV,3,3,09,33,,,40*74
$GPGLL,,,,,191025.00,V,N*44
$GPRMC,191026.00,V,,,,,,,290415,,,N*7B
$GPVTG,,,,,,,,,N*30
$GPGGA,191026.00,,,,,0,00,99.99,,,,,,*6B
$GPGSA,A,1,,,,,,,,,,,,,99.99,99.99,99.99*30
$GPGSV,2,1,08,04,,,26,14,,,40,19,,,29,22,,,44*70
$GPGSV,2,2,08,27,,,34,30,,,25,31,,,44,33,,,40*71
$GPGLL,,,,,191026.00,V,N*47
$GPRMC,191027.00,V,,,,,,,290415,,,N*7A
$GPVTG,,,,,,,,,N*30
$GPGGA,191027.00,,,,,0,00,99.99,,,,,,*6A
$GPGSA,A,1,,,,,,,,,,,,,99.99,99.99,99.99*30
$GPGSV,2,1,08,04,,,26,14,,,40,19,,,29,22,,,44*70
$GPGSV,2,2,08,27,,,34,30,,,25,31,,,44,33,,,40*71
$GPGLL,,,,,191027.00,V,N*46
$GPRMC,191028.00,V,,,,,,,290415,,,N*75
$GPVTG,,,,,,,,,N*30
$GPGGA,191028.00,,,,,0,00,99.99,,,,,,*65
$GPGSA,A,1,,,,,,,,,,,,,99.99,99.99,99.99*30
$GPGSV,2,1,07,04,,,26,14,,,40,19,,,29,22,,,44*7F
$GPGSV,2,2,07,27,,,33,31,,,44,33,,,40*7D
$GPGLL,,,,,191028.00,V,N*49
$GPRMC,191029.00,V,,,,,,,290415,,,N*74
$GPVTG,,,,,,,,,N*30
$GPGGA,191029.00,,,,,0,00,99.99,,,,,,*64
$GPGSA,A,1,,,,,,,,,,,,,99.99,99.99,99.99*30
$GPGSV,2,1,07,04,,,26,14,,,40,19,,,30,22,,,44*77
$GPGSV,2,2,07,2$GPRMC,191030.00,V,,,,,,,290415,,,N*7C
$GPVTG,,,,,,,,,N*30
$GPGGA,191030.00,,,,,0,00,99.99,,,,,,*6C
$GPGSA,A,1,,,,,,,,,,,,,99.99,99.99,99.99*30
$GPGSV,2,1,07,04,,,26,14,,,40,19,,,31,22,,,44*76
$GPGSV,2,2,07,27,,,33,31,,,44,33,,,40*7D
$GPGLL,,,,,191030.00,V,N*40
$GPRMC,191031.00,V,,,,,,,290415,,,N*7D
$GPVTG,,,,,,,,,N*30
$GPGGA,191031.00,,,,,0,00,99.99,,,,,,*6D
$GPGSA,A,1,,,,,,,,,,,,,99.99,99.99,99.99*30
$GPGSV,2,1,07,04,,,25,14,,,40,19,,,31,22,,,44*75
$GPGSV,2,2,07,27,,,33,31,,,43,33,,,40*7A
$GPGLL,,,,,191031.00,V,N*41
$GPRMC,191032.00,V,,,,,,,290415,,,N*7E
$GPVTG,,,,,,,,,N*30
$GPGGA,191032.00,,,,,0,00,99.99,,,,,,*6E
$GPGSA,A,1,,,,,,,,,,,,,99.99,99.99,99.99*30
$GPGSV,2,1,07,04,,,26,14,,,39,19,,,30,22,,,44*79
$GPGSV,2,2,07,27,,,33,31,,,43,33,,,40*7A
$GPGLL,,,,,191032.00,V,N*42
$GPRMC,191033.00,A,2627.99792,S,04906.86038,W,0.200,,290415,,,A*7C
$GPVTG,,T,,M,0.200,N,0.370,K,A*25
$GPGGA,191033.00,2627.99792,S,04906.86038,W,1,04,2.34,49.0,M,-1.5,M,,*7C
$GPGSA,A,3,22,31,27,14,,,,,,,,,7.26,2.34,6.87*0F
$GPGSV,2,1,07,04,,,27,14,45,140,39,19,,,29,22,28,118,43*71
$GPGSV,2,2,07,27,32,344,32,31,32,046,42,33,42,056,39*40
$GPGLL,2627.99792,S,04906.86038,W,191033.00,A,A*6C
$GPRMC,191034.00,A,2627.99802,S,04906.85987,W,0.233,,290415,,,A*73
$GPVTG,,T,,M,0.233,N,0.432,K,A*24
$GPGGA,191034.00,2627.99802,S,04906.85987,W,1,04,2.34,47.1,M,-1.5,M,,*7C
$GPGSA,A,3,22,31,27,14,,,,,,,,,7.26,2.3,6.87*0F
$GPGSV,2,1,07,04,,,29,14,45,140,39,19,,,29,22,28,118,44*78
$GPGSV,2,2,07,27,32,344,32,31,32,046,43,33,42,056,39*41
$GPGLL,2627.99802,S,04906.85987,W,191034.00,A,A*63
$GPRMC,191035.00,A,2627.99800,S,04906.85997,W,0.280,,290415,,,A*79
$GPVTG,,T,,M,0.280,N,0.518,K,A*25
$GPGGA,191035.00,2627.99800,S,04906.85997,W,1,04,2.34,47.1,M,-1.5,M,,*7E
$GPGSA,A,3,22,31,27,14,,,,,,,,,7.26,2.34,6.87*0F
$GPGSV,2,1,07,04,,,29,14,45,140,39,19,,,30,22,28,118,44*70
$GPGSV,2,2,07,27,32,344,32,31,32,046,43,33,42,4906.85997,W,191035.00,A,A*61
$GPRMC,191036.00,A,2627.99794,S,04906.85993,W,0.085,,290415,,,A*7B
$GPVTG,,T,,M,0.085,N,0.157,K,A*2D
$GPGGA,191036.00,2627.99794,S,04906.85993,W,1,04,2.34,46.5,M,-1.5,M,,*7E
$GPGSA,A,3,22,31,27,14,,,,,,,,,7.26,2.34,6.87*0F
$GPGSV,2,1,07,04,,,29,14,45,140,39,19,,,30,22,28,118,44*70
$GPGSV,2,2,07,27,32,344,32,31,32,046,43,33,42,056,39*41
$GPGLL,2627.99794,S,04906.85993,W,191036.00,A,A*64
$GPRMC,191037.00,A,2627.99789,S,04906.85985,W,0.456,,290415,,,A*7B
$GPVTG,,T,,M,0.456,N,0.844,K,A*2C
$GPGGA,191037.00,2627.99789,S,04906.85985,W,1,04,2.34,45.8,M,-1.5,M,,*7A
$GPGSA,A,3,22,31,27,14,,,,,,,,,7.25,2.34,6.87*0C
$GPGSV,2,1,07,04,,,30,14,45,140,39,19,,,30,22,28,118,44*78
$GPGSV,2,2,07,27,32,344,32,31,32,046,43,33,42,056,39*41
$GPGLL,2627.99789,S,04906.85985,W,191037.00,A,A*6E
$GPRMC,191038.00,A,2627.99783,S,04906.85984,W,0.307,,290415,,,A*7C
$GPVTG,,T,,M,0.307,N,0.568,K,A*2C
$GPGGA,191038.00,2627.99783,S,04906.85984,W,1,04,2.34,45.4,M,-1.5,M,,*72
$GPGSA,A,3,22,31,27,14,,,,,,,,7.25,2.34,6.87*0C
$GPGSV,2,1,07,04,,,30,14,45,140,39,19,,,31,22,28,118,44*79
$GP.99783,S,04906.85984,W,191038.00,A,A*6A
$GPRMC,191039.00,A,2627.99777,S,04906.85990,W,0.037,,290415,,,A*73
$GPVTG,,T,,M,0.037,N,0.068,K,A*29
$GPGGA,191039.00,2627.99777,S,04906.85990,W,1,04,2.33,45.2,M,-1.5,M,,*7C
$GPGSA,A,3,22,31,27,14,,,,,,,,,7.25,2.33,6.86*0A
$GPGSV,2,1,07,04,,,30,14,45,140,39,19,,,33,22,28,118,44*7B
$GPGSV,2,2,07,27,32,344,32,31,32,046,43,33,42,05,40*4F
$GPGLL,2627.99777,S,04906.85990,W,191039.00,A,A*65
$GPRMC,191040.00,A,2627.99775,S,04906.85993,W,0.382,,290415,,,A*71
$GPVTG,,T,,M,0.382,N,0.708,K,A*25
$GPGGA,191040.00,2627.99775,S,04906.85993,W,1,04,2.33,45.4,M,-1.5,M,,*75
$GPGSA,A,3,22,31,27,14,,,,,,,,,7.25,2.33,6.86*0A
$GPGSV,2,1,07,04,,,30,14,45,140,39,19,,,34,22,28,118,44*7C
$GPGSV,2,2,07,27,32,344,32,31,32,046,43,33,42,056,40*4F
$GPGLL,2627.99775,S,04906.85993,W,191040.00,A,A*6A
$GPRMC,191041.00,A,2627.99773,S,04906.86007,W,0.111,,290415,,,A*79
$GPVTG,,T,,M,0.111,N,0.206,K,A*26
$GPGGA,191041.00,2627.99773,S,04906.86007,W,1,04,2.33,45.5,M,-1.5,M,,*74
$GPGSA,A,3,22,31,27,14,,,,,,,,,7.25,2.33,6.86*0A
$GPGSV,2,1,07,04,,,30,14,45,140,39,19,,,35,22,28,118,44*7D
$GPGSV,2,2,07,27,32,344,33,31,32,046,43,33,42,056,40*4E
$GPGLL,2627.99773,S,04906.86007,W,191041.00,A,A*6A
$GPRMC,191042.00,A,2627.99774,S,04906.86008,W,0.380,,290415,,,A*78
$GPVTG,,T,,M,0.380,N,0.704,K,A*2B
$GPGGA,191042.00,2627.9977431,27,14,,,,,,,,,7.25,2.33,6.86*0A
$GPGSV,2,1,07,04,,,30,14,45,140,39,19,,,35,22,218,44*7D
$GPGSV,2,2,07,27,32,344,33,31,32,046,44,33,42,056,40*49
$GPGLL,2627.99774,S,04906.86008,W,191042.00,A,A*61
$GPRMC,191043.00,A,2627.99771,S,04906.86019,W,0.152,,290415,,,A*71
$GPVTG,,T,,M,0.152,N,0.281,K,A*2E
$GPGGA,191043.00,2627.99771,S,04906.86019,W,1,04,2.33,45.3,M,-1.5,M,,*7D
$GPGSA,A,3,22,31,27,14,,,,,,,,,7.25,2.33,6.86*0A
$GPGSV,2,1,07,04,,,30,14,45,140,39,19,,,35,22,28,118,44*7D
$GPGSV,2,2,07,27,32,344,32,31,32,046,44,33,42,056,40*48
$GPGLL,26279771,S,04906.86019,W,191043.00,A,A*65
$GPRMC,191044.00,A,2627.99770,S,04906.86033,W,0.178,,290415,,,A*77
$GPVTG,,T,,M,0.178,N,0.329,K,A*25
$GPGGA,191044.00,2627.99770,S,04906.86033,W,1,04,2.33,45.4,M,-1.5,M,,*74
$GPGSA,A,3,22,31,27,14,,,,,,,,,7.24,2.33,6.86*0B
$GPGSV,2,1,08,04,,,30,14,45,140,39,19,,,35,22,28,118,44*72
$GPGSV,2,2,08,27,32,344,32,31,32,046,43,32,,,30,33,42,056,40*42
$GPGLL,2627.99770,S,04906.86033,W,191044.00,A,A*6B
$GPRMC,191045.00,A,2627.99774,S,04906.86042,W,0.211,,290415,,,A*78
$GPVTG,,T,,M,0.211,N,0.390,K,A*2B
$GPGGA,191045.00,2627.99774,S,04906.86042,W,1,04,2.33,45.3,M,-1.5,M,,*70
$GPGSA,A,3,22,31,27,14,,,,,,,,,7.24,2.33,6.86*0B
$GPGSV,2,1,08,04,,,30,14,45,140,39,19,,,36,22,28,118,44*71
$GPGSV,2,2,08,27,32,344,32,31,32,046,43,32,,,29,33,42,056,40*4A
$GPGLL,2627.99774,S,04906.86042,W,191045.00,A,A*68
$GPRMC,191046.00,A,2627.99778,S,04906.86068,W,0.517,,290415,,,A*7E
$GPVTG,,T,,M,0.517,N,0.957,K,A*2B
$GPGGA,191046.00,2627.99778,S,04906.86068,W,1,04,2.33,45.2,M,-1.5,M,,*76
$GPGSA,AGPGSV,2,2,08,27,32,344,32,31,32,046,43,32,,,28,33,42,056,40*4B
$GPGLL,2627.99778,S,04906.86068,W,191046.00,A,A*6F
$GPRMC,191047.00,A,2627.99778,S,04906.86072,W,0.228,,290415,,,A*7F
$GPVTG,,T,,M,0.228,N,0.422,K,A*2F
$GPGGA,191047.00,2627.99778,S,04906.86072,W,1,04,2.33,45.2,M,-1.5,M,,*7C
$GPGSA,A,3,22,31,27,14,,,,,,,,,7.24,2.33,6.85*08
$GPGSV,2,1,08,04,,,30,14,45,140,39,19,,,36,22,28,118,44*71
$GPGSV,2,2,08,27,32,344,31,31,32,046,43,32,,,28,33,42,056,39*46
$GPGLL,2627.99778,S,04906.86072,W,191047.00,A,A*65
$GPRMC,191048.00,A,2627.99776,S,04906.86073,W,0.256,,290415,,,A*76
$GPVTG,,T,,M,0.256,N,0.475,K,A*24
$GPGGA,191048.00,2627.99776,S,04906.86073,W,1,04,2.33,45.3,M,-1.5,M,,*7D
$GPGSA,A,3,22,31,27,14,,,,,,,,,7.24,2.33,6.85*08
$GPGSV,2,1,08,04,,,30,14,45,140,39,19,,,36,22,28,118,44*71
$GPGSV,2,2,08,27,32,344,31,31,32,046,43,32,,,29,33,42,056,40*49
$GPGLL,2627.99776,S,04906.86073,W,191048.00,A,A*65
$GPRMC,191049.00,A,2627.99773,S,04906.86072,W,0.243,,290415,,,A*77
$GPVTG,,T,,M,0.243,N,0.451,K,A*26
$GPGGA,191049.00,2627.99773,S,04906.86072,W,1,04,2.33,45.2,M,-1.5,M,,*79
$GPGSA,A,3,22,31,27,14,,,,,,,,,7.24,2.33,6.85*08
$GPGSV,2,1,08,04,,,30,14,45,140,38,19,,,36,22,28,118,44*70
$GPGSV,2,2,08,27,32,344,31,31,32,046,43,32,,,29,33,42,056,39*47
$GPGLL,2627.99773,S,04906.86072,W,191049.00,A,A*60
$GPRMC,191050.00,A,2627.99772,S,04906.86093,W,0.318,,290415,,,A*7E
$GPVTG,,T,,M,0.318,N,0.589,K,A*2D
$GPGGA,191050.00,2627.9,22,31,27,14,,,,,,,,,7.24,2.33,6.85*08
$GPGSV,2,1,08,04,,,30,14,45,140,38,19,,,36,28,118,44*70
$GPGSV,2,2,08,27,32,344,32,31,32,046,43,32,,,29,33,42,056,40*4A
$GPGLL,2627.99772,S,04906.86093,W,191050.00,A,A*66
$GPRMC,191051.00,A,2627.99775,S,04906.86107,W,0.052,,290415,,,A*79
$GPVTG,,T,,M,0.052,N,0.097,K,A*2A
$GPGGA,191051.00,2627.99775,S,04906.86107,W,1,04,2.33,44.9,M,-1.5,M,,*7F
$GPGSA,A,3,22,31,27,14,,,,,,,,,7.23,2.33,6.85*0F
$GPGSV,2,1,08,04,,,30,14,45,140,38,19,,,36,22,28,118,44*70
$GPGSV,2,2,08,27,32,344,32,31,32,046,43,32,,,28,33,42,056,40*4B
$GPGLL,2627.99775,S,04906.86107,W,191051.00,A,A*6C
$GPRMC,191052.00,A,2627.99774,S,04906.86102,W,0.344,,290415,,,A*7A
$GPVTG,,T,,M,0.344,N,0.637,K,A*22
$GPGGA,191052.00,2627.99774,S,04906.86102,W,1,04,2.33,44.8,M,-1.5,M,,*79
$GPGSA,A,3,22,31,27,14,,,,,,,,,7.23,2.33,6.85*0F
$GPGSV,2,1,08,04,,,30,14,45,140,38,19,,,36,22,28,118,44*70
$GPGSV,2,2,08,27,32,344,32,31,32,046,44,32,,,28,33,42,056,40*4C
$GPGLL,2627.99774,S,04906.86102,W,191052.00,A,A*6B
$GPRMC,191053.00,A,2627.99780,S,04906.86106,W,0.151,,290415,,,A*72
$GPVTG,,T,,M,0.151,N,0.279,K,A*2A
$GPGGA,191053.00,2627.99780,S,04906.86106,W,1,04,2.32,44.6,M,-1.5,M,,*78
$GPGSA,A,3,22,31,27,14,,,,,,,,,7.23,2.32,6.85*0E
$GPGSV,2,1,08,04,,,30,14,45,140,38,19,,,36,22,28,118,44*70
$GPGSV,2,2,08,27,32,344,32,31,32,046,44,32,,,29,33,42,056,40*4D
$GPGLL,2627.99780,S,04906.86106,W,191053.00,A,A*65
$GPRMC,191054.00,A,2627.99784,S,04906.86100,W,0.417,,290415,,,A*70
$GPVTG,,T,,M,0.417,N,0.772,K,A*23
$GPGGA,191054.00,2627.99784,S,04906.86100,W,1,04,2.32,44.6,M,-1.5,M,,*7D
$GPGSA,A,3,22,,14,,,,,,,,,7.23,2.32,6.85*0E
$GPGSV,2,1,08,04,,,29,14,45,140,38,19,,,36,22,28,118,43*7F
$GPGSV,2,2,08,27,32,344,32,31,32,046,42,32,,,28,33,42,056,39*44
$GPGLL,2627.99784,S,04906.86100,W,191054.00,A,A*60
$GPRMC,191055.00,A,2627.99786,S,04906.86095,W,0.286,,290415,,,A*70
$GPVTG,,T,,M,0.286,N,0.530,K,A*29
$GPGGA,191055.00,2627.99786,S,04906.86095,W,1,04,2.32,44.6,M,-1.5,M,,*73
$GPGSA,A,3,22,31,27,14,,,,,,,,,7.23,2.32,6.85*0E
$GPGSV,2,1,08,04,,,29,14,45,140,38,19,,,36,22,28,118,44*78
$GPGSV,2,2,08,27,32,344,32,31,32,046,43,32,,,28,33,42,056,3*45
$GPGLL,2627.99786,S,04906.86095,W,191055.00,A,A*6E
$GPRMC,191056.00,A,2627.99788,S,04906.86080,W,0.445,,290415,,,A*70
$GPVTG,,T,,M,0.445,N,0.825,K,A*29
$GPGGA,191056.00,2627.99788,S,04906.86080,W,1,04,2.32,44.3,M,-1.5,M,,*7F
$GPGSA,A,3,22,31,27,14,,,,,,,,,7.23,2.32,6.84*0F
$GPGSV,2,1,08,04,,,29,14,45,140,38,19,,,36,22,28,118,43*7F
$GPGSV,2,2,08,27,32,344,32,31,32,046,43,32,,,27,33,42,056,39*4A
$GPGLL,2627.99788,S,04906.86080,W,191056.00,A,A*67
$GPRMC,191057.00,A,2627.99789,S,04906.86074,W,0.127,,290415,,,A*7A
$GPVTG,,T,,M,0.127,N,0.234,K,A*22
$GPGGA,191057.00,2627.99789,S,04906.86074,W,1,04,2.32,44.2,M,-1.5,M,,*75
$GPGSA,A,3,22,31,27,14,,,,,,,,,7.23,2.32,6.84*0F
$GPGSV,2,1,08,04,,,29,14,45,140,38,19,,,35,22,28,118,44*7B
$GPGSV,2,2,08,27,32,344,32,31,32,046,43,32,,,28,33,42,056,39*45
$GPGLL,2627.99789,S,04906.86074,W,191057.00,A,A*6C
$GPRMC,191058.00,A,2627.99787,S,04906.86074,W,0.144,,290415,,,A*7E
$GPVTG,,T,,M,0.144,N,0.267,K,A*21
$GPGGA,191058.00,2627.99787,S,04906.86074,W,1,04,2.32,44.1,M,-1.5,M,,*77
$GPGSA,A,3,22,31,27,14,,,,,,,,,7.22,2.32,6.84*0E
$GPGSV,2,1,08,04,,,29,14,45,140,38,19,,,35,22,28,118,44*7B
$GPGSV,2,2,08,27,32,344,32,31,32,046,43,32,,,28,33,42,056,39*45
$GPGLL,2627.99787,S,04906.86074,W,191058.00,A,A*6D
$GPRMC,191059.00,A,2627.99786,S,04906.86075,W,0.073,,290415,,,A*7A
$GPVTG,,T,,M,0.073,N,0.135,K,A*20
$GPGGA,191059.00,2627.99786,S,04906.86075,W,1,04,2.32,44.0,M,-1.5,M,,*77
$GPGSA,A,3,22,31,27,14,,,,,,,,,7.22,2.32,6.84*0E
$GPGSV,2,1,08,04,,,29,14,45,140,38,19,,35,22,28,118,44*7B
$GPGSV,2,2,08,27,32,344,31,31,32,046,43,32,,,28,33,42,056,39*46
$GPGLL,2627.99786,S,04906.86075,W,191059.00,A,A*6C
$GPRMC,191100.00,A,2627.99791,S,04906.86080,W,0.119,,290415,,,A*76
$GPVTG,,T,,M,0.119,N,0.220,K,A*2A
$GPGGA,191100.00,2627.99791,S,04906.86080,W,1,04,2.32,43.8,M,-1.5,M,,*79
$GPGSA,A,3,22,31,27,14,,,,,,,,,7.22,2.32,6.84*0E
$GPGSV,2,1,08,04,,,29,14,45,140,38,19,,,36,22,28,118,44*78
$GPGSV,2,2,08,27,32,344,31,31,32,046,43,32,,,28,33,42,056,39*46
$GPGLL,2627.99791,S,04906.86080,W,191100.00,A,A*6D
$GPRMC,191101.00,A,2627.99794,S,04906.86091,W,0.266,,290415,,,A*79
$GPVTG,,T,,M,0.266,N,0.492,K,A*2E
$GPGGA,191101.00,2627.99794,S,04906.86091,W,1,04,2.32,43.6,M,-1.5,M,,*73
$GPGSA,A,3,22,31,27,14,,,,,,,,,7.22,2.32,6.84*0E
$GPGSV,2,1,08,04,,,30,14,45,140,38,19,2,,,29,33,42,056,40*4E
$GPGLL,2627.99794,S,04906.86091,W,191101.00,A,A*69
$GPRMC,191102.00,A,2627.99793,S,04906.86112,W,0.567,,290415,,,A*71
$GPVTG,,T,,M,0.567,N,1.050,K,A*23
$GPGGA,191102.00,2627.99793,S,04906.86112,W,1,04,2.32,43.4,M,-1.5,M,,*7F
$GPGSA,A,3,22,31,27,14,,,,,,,,,7.22,2.32,6.84*0E
$GPGSV,2,1,08,04,,,30,14,45,140,38,19,,,36,22,28,118,44*70
$GPGSV,2,2,08,27,32,344,31,31,32,047,44,32,,,29,33,42,056,40*4F
$GPGLL,2627.99793,S,04906.86112,W,191102.00,A,A*67
$GPRMC,191103.00,A,2627.99796,S,04906.86137,W,0.753,,290415,,,A*77
$GPVTG,,T,,M,0.753,N,1.395,K,A*2C
$GPGGA,191103.00,2627.99796,S,04906.86137,W,1,04,2.32,43.2,M,-1.5,M,,*7A
$GPGSA,A,3,22,31,27,14,,,,,,,,,7.22,.32,6.84*0E
$GPGSV,2,1,08,04,,,30,14,45,140,38,19,,,36,22,28,118,44*70
$GPGSV,2,2,08,27,32,344,31,31,32,047,44,32,,,29,33,42,056,40*4F
$GPGLL,2627.99796,S,04906.86137,W,191103.00,A,A*64
$GPRMC,191104.00,A,2627.99795,S,04906.86003,W,0.226,,290415,,,A*72
$GPVTG,,T,,M,0.226,N,0.418,K,A*28
$GPGGA,191104.00,2627.99795,S,04906.86003,W,1,06,1.99,43.6,M,-1.5,M,,*7C
$GPGSA,A,3,22,31,04,27,19,14,,,,,,,6.47,1.99,6.15*0A
$GPGSV,2,1,08,04,54,211,30,14,45,140,38,19,51,306,36,22,28,118,44*72
$GPGSV,2,2,08,27,32,344,31,31,32,047,442,,,29,33,42,056,40*4F
$GPGLL,2627.99795,S,04906.86003,W,191104.00,A,A*66
$GPRMC,191105.00,A,2627.99802,S,04906.85952,W,0.007,,290415,,,A*7D
$GPVTG,,T,,M,0.007,N,0.013,K,A*26
$GPGGA,191105.00,2627.99802,S,04906.85952,W,1,06,1.99,43.6,M,-1.5,M,,*72
$GPGSA,A,3,22,31,04,27,19,14,,,,,,,6.46,1.99,6.15*0B
$GPGSV,2,1,08,04,54,211,30,14,45,140,38,19,51,306,36,22,28,118,44*72
$GPGSV,2,2,08,27,32,344,31,31,32,047,44,32,,,30,33,42,056,40*47
$GPGLL,2627.99802,S,04906.85952,W,191105.00,A,A*68
$GPRMC,191106.00,A,2627.99809,S,04906.85930,W,0.015,,290415,,,A*72
$GPVTG,,T,,M,0.015,N,0.028,K,A*2D
$GPGGA,191106.00,2627.99809,S,04906.85930,W,1,06,1.99,43.6,M,-1.5,M,,*7E
$GPGSA,A,3,22,31,04,27,19,14,,,,,,,6.46,1.99,6.15*0B
$GPGSV,2,1,08,04,54,211,30,14,45,140,38,19,51,306,36,22,28,118,44*72
$GPGSV,2,2,08,27,32,344,32,31,32,047,44,32,,,30,33,42,056,40*44
$GPGLL,2627.99809,S,04906.85930,W,191106.00,A,A*64
$GPRMC,191107.00,A,2627.99811,S,04906.85918,W,0.004,,290415,,,A*70
$GPVTG,,T,,20
$GPGGA,191107.00,2627.99811,S,04906.85918,W,1,06,1.99,43.5,M,-1.5,M,,*7F
$GPGSA,A,3,22,31,04,27,19,14,,,,,,,6.46,1.99,6.15*0B
$GPGSV,2,1,08,04,54,211,30,14,45,140,38,19,51,306,36,22,28,118,44*72
$GPGSV,2,2,08,27,32,344,32,31,32,047,44,32,,,30,33,42,056,40*44
$GPGLL,2627.99811,S,04906.85918,W,191107.00,A,A*66
$GPRMC,191108.00,A,2627.99812,S,04906.85907,W,0.014,,290415,,,A*73
$GPVTG,,T,,M,0.014,N,0.026,K,A*22
$GPGGA,191108.00,2627.99812,S,04906.85907,W,1,06,1.99,43.4,M,-1.5,M,,*7C
$GPGSA,A,3,22,31,04,27,19,14,,,,,,,6.46,1.99,6.14*0A
$GPGSV,2,1,08,04,54,211,30,14,45,140,38,19,51,306,36,22,28,118,44*72
$GPGSV,2,2,08,27,32,344,32,31,32,047,44,32,,,30,33,42,056,40*44
$GPGLL,2627.99812,S,04906.85907,W,191108.00,A,A*64
$GPRMC,191109.00,A,2627.99812,S,04906.85911,W,0.019,,290415,,,A*78
$GPVTG,,T,,M,0.019,N,0.034,K,A*2C
$GPGGA,191109.00,2627,3,22,31,04,27,19,14,,,,,,,6.46,1.99,6.14*0A
$GPGSV,2,1,08,04,54,211,30,14,45,140,38,19,51,306,35,22,28,118,44*71
$GPGSV,2,2,08,27,32,344,32,31,32,047,44,32,,,30,33,42,056,40*44
$GPGLL,2627.99812,S,04906.85911,W,191109.00,AA*62
$GPRMC,191109.00,A,2627.99815,S,04906.85932,W,0.031,,290415,,,A*74
$GPVTG,,T,,M,0.031,N,0.058,K,A*2C
$GPGGA,191109.00,2627.99815,S,04906.85932,W,1,06,1.99,43.0,M,-1.5,M,,*78
$GPGSA,A,3,22,31,04,27,19,14,,,,,,,6.45,1.99,6.14*09
$GPGSV,2,1,08,04,54,211,30,14,45,140,38,19,51,306,35,22,28,118,44*71
$GPGSV,2,2,08,27,32,344,33,31,32,047,44,32,,,29,33,42,056,40*4D
$GPGLL,2627.99815,S,04906.85932,W,191109.00,A,A*64
$GPRMC,191110.00,A,2627.99818,S,04906.85948,W,0.079,,290415,,,A*70
$GPVTG,,T,,M,0.079,N,0.147,K,A*2F
$GPGGA,191110.00,2627.99818,S,04906.85948,W,1,06,1.99,43.0,M,-1.5,M,,*70
$GPGSA,A,3,22,31,04,27,19,14,,,,,,,6.45,1.99,6.14*09
$GPGSV,2,1,08,04,54,211,30,14,45,140,38,19,51,306,35,22,28,118,45*70
$GPGSV,2,2,08,27,32,344,32,31,32,047,44,32,,,30,33,42,056,40*44
$GPGLL,2627.99818,S,04906.85948,W,191110.00,A,A*6C
$GPRMC,191111.00,A,2627.99819,S,04906.85956,W,0.001,,290415,,,A*70
$GPVTG,,T,,M,0.001,N,0.001,K,A*23
$GPGGA,191111.00,2627.99819,S,04906.85956,W,1,06,1.99,42.8,M,-1.5,M,,*76
$GPGSA,A,3,22,31,04,27,19,14,,,,,,,6.45,1.99,6.14*09
$GPGSV,2,1,08,04,54,211,30,14,45,140,38,19,51,306,35,22,28,118,45*70
$GPGSV,2,2,08,27,32,344,32,31,32,047,44,32,,,30,33,42,056,40*44
$GPGLL,2627.99819,S,04906.85956,W,191111.00,A,A*63
$GPRMC,191112.00,A,2627.99817,S,04906.85950,W,0.023,,290415,,,A*7B
$GPVTG,,T,,M,0.023,N,0.042,K,A*24
$GPGGA,191112.00,2627.99817,S,04906.85950,W,1,06,1.99,42.7,M,-1.5,M,,*72
$GPGSA,A,3,22,31,04,27,19,14,,,,,,,6.45,1.99,6.13*0E
$GPGSV,2,1,08,04,54,211,30,14,45,1408,19,51,306,36,22,28,118,45*73
$GPGSV,2,2,08,27,32,344,32,31,32,047,44,32,,,29,33,42,056,40*4C
$GPGLL,2627.99817,S,04906.85950,W,191112.00,A,A*68
$GPRMC,191113.00,A,2627.99818,S,04906.85957,W,0.011,,290415,,,A*73
$GPVTG,,T,,M,0.011,N,0.021,K,A*20
$GPGGA,191113.00,2627.99818,S,04906.85957,W,1,06,1.99,42.6,M,-1.5,M,,*7A
$GPGSA,A,3,22,31,04,27,19,14,,,,,,,6.45,1.99,6.13*0E
$GPGSV,2,1,08,04,54,211,30,14,45,140,38,19,51,306,36,22,28,118,45*73
$GPGSV,2,2,08,27,32,344,31,31,32,042,,,29,33,42,056,40*4F
$GPGLL,2627.99818,S,04906.85957,W,191113.00,A,A*61
$GPRMC,191114.00,A,2627.99821,S,04906.85965,W,0.013,,290415,,,A*7D
$GPVTG,,T,,M,0.013,N,0.024,K,A*27
$GPGGA,191114.00,2627.99821,S,04906.85965,W,1,06,1.99,42.5,M,-1.5,M,,*75
$GPGSA,A,3,22,31,04,27,19,14,,,,,,,6.44,1.99,6.13*0F
$GPGSV,2,1,08,04,54,211,30,14,45,140,38,19,51,306,35,22,28,118,45*70
$GPGSV,2,2,08,27,32,344,31,31,32,047,44,32,,,29,33,42,056,40*4F
$GPGLL,2627.99821,S,04906.85965,W,191114.00,A,A*6D
$GPRMC,191115.00,A,2627.99822,S,04906.85971,W,0.040,,290415,,,A*7C
$GPVTG,,T,,M,0.040,N,0.075,K,A*25
$GPGGA,191115.00,2627.99822,S,04906.85971,W,1,06,1.99,42.5,M,-1.5,M,,*72
$GPGSA,A,3,22,31,04,27,19,14,,,,,,,6.44,1.99,6.13*0F
$GPGSV,3,1,09,04,54,211,30,14,45,140,38,18,00,100,,19,51,306,35*7B
$GPGSV,3,2,09,22,28,118,45,27,32,344,31,31,32,047,44,32,,,29*4D
$GPGSV,3,3,09,33,42,056,40*41
$GPGLL,2627.99822,S,04906.85971,W,191115.00,A,A*6A
$GPRMC,191116.00,A,2627.99821,S,04906.85972,W,0.015,,290415,,,A*7F
$GPVTG,,T,,M,0.015,N,0.028,K,A*2D
$GPGGA,191116.00,2627.99821,S,04906.85972,W,1,06,1.99,42.4,M,-1.5,M,,*70
$GPGSA,A,3,22,31,04,27,19,14,,,,,,,6.44,1.99,6.12*0E
$GPGSV,3,1,09,04,54,211,30,14,45,140,38,18,00,100,,19,51,306,36*78
$GPGSV,3,2,09,22,28,118,44,27,32,344,30,31,32,047,44,32,,,29*4D
$GPGSV,3,3,09,33,42,056,40*41
$GPGLL,2627.99821,S,04906.85972,W,191116.00,A,A*69
$GPRMC,191117.00,A,2627.99820,S,04906.85972,W,0.038,,290415,,,A*70
$GPVTG,,T,,M,0.038,N,0.071,K,A*2E
$GPGGA,191117.00,2627.99820,S,04906.85972,W,1,06,1.99,42.2,M,-1.5,M,,*76
$GPGSA,A,3,22,31,04,27,19,14,,,,,,,6.44,1.99,6.12*0E
$GPGSV,3,1,09,04,54,211,30,14,45,140,38,18,00,100,,19,51,306,36*78
$GPGSV,3,2,09,22,28,118,44,27,32,344,30,31,32,047,44,32,,,29*4D
$GPGSV,3,3,09,33,42,056,40*41
$GPGLL,2627.99820,S,04906.85972,W,191117.00,A,A*69
$GPRMC,191118.00,A,2627.99820,S,04906.85975,W,0.014,,290415,,,A*76
$GPVTG,,T,,M,0.014,N,0.025,K,A*21
$GPGGA,191118.00,2627.99820,S,04906.85975,W,1,06,1.99,42.2,M,-1.5,M,,*7E
$GPGSA,A,3,22,3104,27,19,14,,,,,,,6.43,1.99,6.12*09
$GPGSV,3,1,09,04,54,211,30,14,45,140,38,18,00,100,,19,51,306,36*78
$GPGSV,3,2,09,22,28,118,45,27,32,344,30,31,32,047,44,32,,,29*4C
$GPGSV,3,3,09,33,42,056,40*41
$GPGLL,2627.99820,S,04906.85975,W,191118.00,A,A*61
$GPRMC,191119.00,A,2627.99822,S,04906.85982,W,0.020,,290415,,,A*7A
$GPVTG,,T,,M,0.020,N,0.036,K,A*24
$GPGGA,191119.00,2627.99822,S,04906.85982,W,1,06,1.99,42.2,M,-1.5,M,,*75
$GPGSA,A,3,22,31,04,27,19,14,,,,,,,6.43,1.99,6.12*09
$GPGSV,3,1,09,04,54,211,30,14,45,14038,18,00,100,,19,51,306,36*78
$GPGSV,3,2,09,22,28,118,44,27,32,344,31,31,32,047,44,32,,,28*4D
$GPGSV,3,3,09,33,42,056,40*41
$GPGLL,2627.99822,S,04906.85982,W,191119.00,A,A*6A
$GPRMC,191120.00,A,2627.99824,S,04906.85988,W,0.017,,290415,,,A*78
$GPVTG,,T,,M,0.017,N,0.032,K,A*24
$GPGGA,191120.00,2627.99824,S,04906.85988,W,1,06,1.98,42.1,M,-1.5,M,,*71
$GPGSA,A,3,22,31,04,27,19,14,,,,,,,6.43,1.98,6.12*08
$GPGSV,3,1,10,04,54,211,31,14,45,140,38,18,00,100,,19,51,306,36*71
$GPGSV,3,2,10,22,28,118,45,27,32,344,31,31,32,04744,32,,,27*4B
$GPGSV,3,3,10,33,42,056,40,39,05,082,*7C
$GPGLL,2627.99824,S,04906.85988,W,191120.00,A,A*6C
$GPRMC,191121.00,A,2627.99824,S,04906.85990,W,0.008,,290415,,,A*7E
$GPVTG,,T,,M,0.008,N,0.014,K,A*2E
$GPGGA,191121.00,2627.99824,S,04906.85990,W,1,06,1.98,42.0,M,-1.5,M,,*78
$GPGSA,A,3,22,31,04,27,19,14,,,,,,,6.43,1.98,6.11*0B
$GPGSV,3,1,10,04,54,211,31,14,45,140,38,18,00,100,,19,51,306,36*71
$GPGSV,3,2,10,22,28,118,45,27,32,344,32,31,32,047,44,32,,,27*48
$GPGSV,3,3,10,33,42,056,40,39,05,082,*7C
$GPGLL627.99824,S,04906.85990,W,191121.00,A,A*64
$GPRMC,191122.00,A,2627.99823,S,04906.85993,W,0.037,,290415,,,A*.00,2627.99823,S,04906.85993,W,1,06,1.98,41.8,M,-1.5,M,,*74
$GPGSA,A,3,22,31,04,27B
$GPGSV,3,1,10,04,54,211,31,14,45,140,38,18,00,100,,19,51,306,36*71
$GPGSV,3,2,10,22,28,118,45,27,32,344,32,31,32,047,44,32,,,27*48
$GPGSV,3,3,10,33,42,056,40,39,05,082,*7C
$GPGLL,2627.99823,S,04906.85993,W,191122.00,A,A*63
$GPRMC,191123.00,A,2627.99823,S,04906.85996,W,0.036,,290415,,,A*70
$GPVTG,,T,,M,0.036,N,0.067,K,A*27
$GPGGA,191123.00,2627.99823,S,04906.85996,W,1,06,1.98,41.6,M,-1.5,M,,*7E
$GPGSA,A,3,22,31,04,27,19,14,,,,,,,6.42,1.98,6.11*0A
$GPGSV,3,1,10,04,54,211,31,14,45,140,38,18,00,100,,19,51,306,36*71
$GPGSV,3,2,10,22,28,118,45,27,32,344,32,31,32,047,44,32,,,27*48
$GPGSV,3,3,10,33,42,056,40,39,05,082,*7C
$GPGLL,2627.99823,S,04906.85996,W,191123.00,A,A*67
$GPRMC,191124.00,A,2627.99824,S,04906.85997,W,0.021,,290415,,,A*77
$GPVTG,,T,,M,0.021,N,0.038,K,A*2B
$GPGGA,191124.00,2627.99824,S,04906.85997,W,1,06,1.98,41.6,M,-1.5,M,,*7F
$GPGSA,A,3,22,31,04,27,19,14,,,,,,,6.42,1.98,6.11*0A
$GPGSV,3,1,10,04,54,211,30,14,45,140,38,18,00,100,,19,51,306,36*70
$GPGSV,3,2,10,22,28,118,44,27,32,344,32,31,32,047,43,32,,,26*4F
$GPGSV,3,3,10,33,42,056,40,39,05,082,*7C
$GPGLL,2627.99824,S,04906.85997,W,191124.00,A,A*66
$GPRMC,191125.00,A,2627.99826,S,04906.85998,W,0.006,,290415,,,A*7E
$GPVTG,,T,,M,0.006,N,0.011,K,A*25
$GPGGA,191125.00,2627.99826,S,04906.85998,W,1,06,1.98,41.8,M,-1.5,M,,*7D
$GPGSA,A,3,22,31,04,27,$GPGSV,3,1,10,04,54,211,30,14,45,140,38,18,00,100,,19,51,306,36*70
$GPGSV,3,2,10,22,28,118,44,27,32,344,31,31,32,047,43,32,,,26*4C
$GPGSV,3,3,10,33,42,056,40,39,05,082,*7C
$GPGLL,2627.99826,S,04906.85998,W,191125.00,A,A*6A
$GPRMC,191126.00,A,2627.99828,S,04906.85997,W,0.017,,290415,,,A*7C
$GPVTG,,T,,M,0.017,N,0.032,K,A*24
$GPGGA,191126.00,2627.99828,1,04,27,19,14,,,,,,,6.42,1.98,6.10*0B
$GPGSV,3,1,10,04,54,211,30,14,45,140,38,18,00,100,,19,51,306,36*70
$GPGSV,3,2,10,22,28,118,44,27,32,344,31,31,32,0473,32,,,26*4C
$GPGSV,3,3,10,33,42,056,40,39,05,082,*7C
$GPGLL,2627.99828,S,04906.85997,W,191126.00,A,A*68
$GPRMC,191127.00,A,2627.99828,S,04906.85997,W,0.005,,290415,,,A*7E
$GPVTG,,T,,M,0.005,N,0.010,K,A*27
$GPGGA,191127.00,2627.99828,S,04906.85997,W,1,07,1.54,41.8,M,-1.5,M,,*7F
$GPGSA,A,3,22,31,04,27,32,19,14,,,,,,5.55,1.54,5.34*0A
$GPGSV,3,1,10,04,54,211,30,14,45,140,37,18,00,100,,19,51,306,36*7F
$GPGSV,3,2,10,22,28,118,44,27,32,344,30,31,32,047,43,32,47,228,25*75
$GPGSV,3,3,10,33,42,056,39,39,05,08,*72
$GPGLL,2627.99828,S,04906.85997,W,191127.00,A,A*69
$GPRMC,191128.00,A,2627.99830,S,04906.85997,W,0.028,,290415,,,A*77
$GPVTG,,T,,M,0.028,N,0.052,K,A*2E
$GPGGA,191128.00,2627.99830,S,04906.85997,W,1,07,1.54,41.8,M,-1.5,M,,*79
$GPGSA,A,3,22,31,04,27,32,19,14,,,,,,5.55,1.54,5.33*0D
$GPGSV,3,1,10,04,54,211,30,14,45,140,37,18,00,100,,19,51,306,36*7F
$GPGSV,3,2,10,22,28,118,44,27,32,344,30,31,32,047,42,32,47,228,26*77
$GPGSV,3,3,10,33,42,056,39,39,05,08,*72
$GPGLL,2627.99830,S,04906.85997,W,191128.00,A,A*6F
$GPRMC,191129.00,A,2627.99831,S,04906.85996,W,0.012,,290415,,,A*7F
$GPVTG,,T,,M,0.012,N,0.022,K,A*20
$GPGGA,191129.00,2627.99831,S,04906.85996,W,1,07,1.54,41.8,M,-1.5,M,,*78
$GPGSA,A,3,22,31,04,27,32,19,14,,,,,,5.55,1.54,5.33*0D
$GPGSV,3,1,10,04,54,211,30,14,45,1432,344,30,31,32,047,42,32,47,228,26*77
$GPGSV,3,3,10,33,42,056,39,39,05,082,*72
$GPGLL,2627.99831,S,04906.85996,W,191129.00,A,A*6E
$GPRMC,191130.00,A,2627.99832,S,04906.85994,W,0.009,,290415,,,A*7C
$GPVTG,,T,,M,0.009,N,0.017,K,A*2C
$GPGGA,191130.00,2627.99832,S,04906.85994,W,1,07,1.54,41.8,M,-1.5,M,,*71
$GPGSA,A,3,22,31,04,27,32,19,14,,,,,,5.55,1.54,5.33*0D
$GPGSV,3,1,10,04,54,211,30,14,45,140,37,18,00,100,,19,51,306,36*7F
$GPGSV,3,2,10,22,28,118,44,27,32,344,29,31,32,047,42,32,47,228,26*7F
$GPGSV,3,3,10,33,42,056,39,39,05,082,*72
$GPGLL,2627.99832,S,04906.85994,W,191130.00,A,A*67
$GPRMC,191131.00,A,2627.99832,S,04906.85992,W,0.005,,290415,,,A*77
$GPVTG,,T,,M,0.005,N,0.010,K,A*27
$GPGGA,191131.00,2627.99832,S,04906.85992,W,1,07,1.54,41.9,M,-1.5,M,,*77
$GPGSA,A,3,22,31,04,27,32,19,14,,,,,,5.55,1.54,5.33*0D
$GPGSV,3,1,10,04,54,211,30,14,45,140,37,18,00,100,,19,51,306,36*7F
$GPGSV,3,2,10,22,28,118,44,27,32,344,29,31,32,047,42,32,47,228,26*7F
$GPGSV,3,3,10,33,42,056,39,39,05,082,*72
$GPGLL,2627.99832,S,04906.85992,W,191131.00,A,A*60
$GPRMC,191132.00,A,2627.99832,S,04906.85990,W,0.013,,290415,,,A*71
$GPVTG,,T,,M,0.013,N,0.024,K,A*27
$GPGGA,191132.00,2627.99832,S,04906.85990,W,1,07,1.54,41.9,M,-1.5,M,,*76
$GPGSA,A,3,22,31,04,27,32,,,,,,5.55,1.54,5.33*0D
$GPGSV,3,1,10,04,54,211,30,14,45,140,37,18,00,100,,19,51,306,36*7F
$GPGSV,3,2,10,22,28,118,44,27,32,344,29,31,32,047,42,32,47,228,26*7F
$GPGSV,3,3,10,33,42,056,39,39,05,082,*72
$GPGLL,2627.99832,S,04906.85990,W,191132.00,A,A*61
$GPRMC,191133.00,A,2627.99831,S,04906.85990,W,0.017,,290415,,,A*77
$GPVTG,,T,,M,0.017,N,0.032,K,A*24
$GPGGA,191133.00,25
$GPGSA,A,3,22,31,04,27,32,19,14,,,,,,5.55,1.54,5.33*0D
$GPGSV,3,1,10,04,54,211,45,140,37,18,00,100,,19,51,306,36*7F
$GPGSV,3,2,10,22,28,118,44,27,32,344,30,31,32,047,42,32,47,228,25*74
$GPGSV,3,3,10,33,42,056,39,39,05,082,*72
$GPGLL,2627.99831,S,04906.85990,W,191133.00,A,A*63
$GPRMC,191134.00,A,2627.99830,S,04906.85991,W,0.028,,290415,,,A*7C
$GPVTG,,T,,M,0.028,N,0.052,K,A*2E
$GPGGA,191134.00,2627.99830,S,04906.85991,W,1,07,1.54,41.6,M,-1.5,M,,*7C
$GPGSA,A,3,22,31,04,27,32,19,14,,,,,,5.55,1.54,5.33*0D
$GPGSV,3,1,10,04,54,211,30,14,45,140,38,18,00,100,,19,51,306,36*70
$GPGSV,3,2,10,22,28,118,44,27,32,344,30,31,32SV,3,3,10,33,42,056,39,39,05,082,*72
$GPGLL,2627.99830,S,04906.85991,W,191134.00,A,A*64
$GPRMC,191135.00,A,2627.99830,S,04906.85991,W,0.035,,290415,,,A*71
$GPVTG,,T,,M,0.035,N,0.065,K,A*26
$GPGGA,191135.00,2627.99830,S,04906.85991,W,1,07,1.54,41.6,M,-1.5,M,,*7D
$GPGSA,A,3,22,31,04,27,32,19,14,,,,,,5.54,1.54,5.33*0C
$GPGSV,3,1,10,04,54,211,30,14,45,140,38,18,00,100,,19,51,306,36*70
$GPGSV,3,2,10,22,28,118,44,27,32,344,30,31,32,047,42,32,47,228,26*77
$GPGSV,3,3,10,33,42,056,39,39,05,082,*7
$GPGLL,2627.99830,S,04906.85991,W,191135.00,A,A*65
$GPRMC,191136.00,A,2627.99831,S,04906.85990,W,0.017,,290415,,,A*72
$GPVTG,,T,,M,0.017,N,0.032,K,A*24
$GPGGA,191136.00,2627.99831,S,04906.85990,W,1,07,1.54,41.7,M,-1.5,M,,*7F
$GPGSA,A,3,22,31,04,27,32,19,14,,,,,,5.54,1.54,5.33*0C
$GPGSV,3,1,10,04,54,211,30,14,45,140,38,18,00,100,,19,51,306,36*70
$GPGSV,3,2,10,22,28,118,44,27,32,344,30,31,32,047,42,32,47,228,26*77
$GPGSV,3,3,10,33,42,056,39,39,05,082$GPRMC,191137.00,A,2627.99831,S,04906.85989,W,0.016,,290415,,,A*7A
$GPVTG,,T,,M,0.016,N,0.029,K,A*2F
$GPGGA,191137.00,2627.99831,S,04906.85989,W,1,07,1.54,41.8,M,-1.5,M,,*79
$GPGSA,A,3,22,31,04,27,32,19,14,,,,,,5.54,1.54,5.32*0D
$GPGSV,3,1,10,04,54,211,31,14,45,140,38,18,00,100,,19,51,306,36*71
$GPGSV,3,2,10,22,28,118,44,27,32,344,30,31,32,047,42,32,47,228,26*77
$GPGSV,3,3,10,33,42,056,39,39,05,082,*72
$GPGLL,2627.99831,S,04906.85989,W,191137.00,A,A*6F
$GPRMC,191138.00,A,2627.99831,S,04906.85989,W,0.040,,290415,,,A*76
$GPVTG,,T,,M,0.040,N,0.075,K,A*25
$GPGGA,191138.00,2627.99831,S,04906.85989,W,1,07,1.54,41.7,M,-1.5,M,,*79
$GPGSA,A,3,22,31,04,27,32,19,14,,,,,,5.54,1.54,5.32*0D
$GPGSV,3,1,10,04,54,211,30,14,45,140,38,18,00,100,,19,51,306,36*70
$GPGSV,3,2,10,22,28,118,44,27,32,344,30,31,32,047,42,32,47,228,26*77
$GPGSV,3,3,10,33,42,056,39,39,05,082,*72
$GPGLL,2627.99831,S,04906.85989,W,191138.00,A,A*60
$GPRMC,191139.00,A,2627.99830,S,04906.85985,W,0.017,,290415,,,A*78
$GPVTG,,T,,M,0.017,N,0.032,K,A*24
$GPGGA,191139.00,2627.99830,S,04906.85985,W,1,07,1.54,41.8,M,-1.5,M,,*7A
$GPGSA,A,3,22,31,04,27,32,19,14,,,,,,5.54,1.54,5.32*0D
$GPGSV,3,1,10,04,54,211,30,14,45,140,38,18,00,100,,19,51,306,37*71
$GPGSV,3,2,10,22,28,118,44,27,32,344,31,31,32,047,42,32,47,228,26*76
$GPGSV,3,3,10,33,42,056,40,39,05,082,*7C
$GPGLL,2627.99830,S,04906.85985,W,191139.00,A,A*6C
$GPRMC,191140.00,A,2627.99829,S,04906.85982,W,0.020,,290415,,,A*7D
$GPVTG,,T,,M,0.020,N,0.037,K,A*25
$GPGGA,191140.00,2627.99829,S,04906.85982,W,1,07,1.54,41.9,M,-1.5,M,,*7A
$GPGSA,A,3,22,31,04,27,32,,14,,,,,,5.54,1.54,5.32*0D
$GPGSV,3,1,10,04,54,211,30,14,45,140,38,18,00,100,,19,51,306,37*71
$GPGSV,3,2,10,22,28,118,44,27,32,344,30,31,32,047,42,32,47,228,26*77
$GPGSV,3,3,10,33,42,056,40,39,05,082,*7C
$GPGLL,2627.99829,S,04906.85982,W,191140.00,A,A*6D
$GPRMC,191141.00,A,2627.99830,S,04906.85977,W,0.003,,290415,,,A*7F
$GPVTG,,T,,M,0.003,N,0.006,K,A*26
$GPGGA,191141.00,2627.99830,S,04906.85977,W,1,07,1.54,42.1,M,-1.5,M,,*72
$GPGSA,A,3,22,31,04,27,32,19,14,,,,,1.54,5.32*0D
$GPGSV,3,1,10,04,54,211,30,14,45,140,38,18,00,100,,19,51,306,36*70
$GPGSV,3,2,10,22,28,118,44,27,32,344,30,31,32,047,42,32,47,228,26*77
$GPGSV,3,3,10,33,42,056,39,39,05,082,*72
$GPGLL,2627.99830,S,04906.85977,W,191141.00,A,A*6E
$GPRMC,191142.00,A,2627.99829,S,04906.85973,W,0.014,,290415,,,A*76
$GPVTG,,T,,M,0.014,N,0.026,K,A*22
$GPGGA,191142.00,2627.99829,S,04906.85973,W,1,07,1.54,42.2,M,-1.5,M,,*7E
$GPGSA,A,3,22,31,04,27,32,19,14,,,,,,5.54,1.54,5.32*0D
$GPGSV,3,1,10,04,54,211,30,14,45,140,37,18,,100,,19,51,306,36*7F
$GPGSV,3,2,10,22,28,118,44,27,32,344,29,31,32,047,42,32,47,228,26*7F
$GPGSV,3,3,10,33,42,056,40,39,05,082,*7C
$GPGLL,2627.99829,S,04906.85973,W,191142.00,A,A*61
$GPRMC,191143.00,A,2627.99828,S,04906.85972,W,0.013,,290415,,,A*70
$GPVTG,,T,,M,0.013,N,0.024,K,A*27
$GPGGA,191143.00,2627.99828,S,04906.85972,W,1,07,1.54,42.2,M,-1.5,M,,*7F
$GPGSA,A,3,22,31,04,27,32,19,14,,,,,,5.54,1.54,5.32*0D
$GPGSV,3,1,10,04,54,211,30,14,45,140,37,18,00,100,,19,51,306,36*7F
$GPGSV,3,2,10,22,28,118,44,28,S,04906.85972,W,191143.00,A,A*60
$GPRMC,191144.00,A,2627.99828,S,04906.85971,W,0.019,,290415,,,A*7E
$GPVTG,,T,,M,0.019,N,0.035,K,A*2D
$GPGGA,191144.00,2627.99828,S,04906.85971,W,1,07,1.54,42.2,M,-1.5,M,,*7B
$GPGSA,A,3,22,31,04,27,32,19,14,,,,,,5.53,1.54,5.32*0A
$GPGSV,3,1,10,04,54,211,30,14,45,140,37,18,00,100,,19,51,306,36*7F
$GPGSV,3,2,10,22,28,118,44,27,32,344,28,31,32,047,42,32,47,228,26*7E
$GPGSV,3,3,10,33,42,056,40,39,05,082,*7C
$GPGLL,2627.99828,S,04906.85971,W,191144.00,A,A*64
$GPRMC,191145.00,A,2627.99828,S,04906.85970,W,0.015,,290415,,,A*72
$GPVTG,,T,,M,0.015,N,0.027,K,A*22
$GPGGA,191145.00,2627.99828,S,04906.85970,W,1,07,1.54,42.2,M,-1.5,M,,*7B
$GPGSA,A,3,22,31,04,27,32,19,14,,,,,,5.53,1.54,5.31*09
$GPGSV,3,1,10,04,54,211,30,14,45,140,37,18,00,100,,19,51,306,36*7F
$GPGSV,3,2,10,22,28,118,44,27,32,344,29,31,32,047,42,32,47,228,26*7F
$GPGSV,3,3,10,33,42,056,40,39,05,082,*7C
$GPGLL,2627.99828,S,04906.85970,W,191145.00,A,A*64
$GPRMC,191146.00,A,2627.99827,S,04906.85967,W,0.005,,290415,,,A*79
$GPVTG,,T,,M,0.005,N,0.009,K,A*2F
$GPGGA,191146.00,2627.99827,S,04906.85967,W,1,07,1.54,42.3,M,-1.5,M,,*70
$GPGSA,A,3,22,31,04,27,32,19,14,,,,,,5.53,1.54,5.31*09
$GPGSV,3,1,10,04,54,211,30,14,45,140,37,18,00,100,,19,51,306,37*7E
$GPGSV,3,2,10,22,28,118,45,27,32,344,28,31,32,047,42,32,47,228,26*7F
$GPGSV,3,3,10,33,42,056,40,39,05,082,*7C
$GPGLL,2627.99827,S,04906.85967,W,191146.00,A,A*6E
$GPRMC,191147.00,A,2627.99827,S,04906.85962,W,0.017,,290415,,,A*7E
$GPVTG,,T,,M,0.017,N,0.031,K,A*27
$GPGGA,191147.00,2627.99827,S,04906.85962,W,1,07,1.54,42.4,M,-1.5,M,,*73
$GPGSA,A,3,22,31,04,27,32,19,14,,,,,,5.53,1.54,5.31*09
$GPGSV,3,1,10,04,54,211,31,14,45,140,37,18,00,100,,19,51,306,36*7E
$GPGSV,3,2,10,22,28,118,44,27,32,344,29,31,32,047,42,32,47,228,25*7C
$GPGSV,3,3,10,33,42,056,40,39,05,082,*7C
$GPGLL,2627.99827,S,04906.85962,W,191147.00,A,A*6A
$GPRMC,191148.00,A,2627.99827,S,04906.85961,W,0.012,,290415,,,A*77
$GPVTG,,T,,M,0.012,N,0.022,K,A*20
$GPGGA,191148.00,2627.99827,S,04906.85961,W,1,07,1.54,42.5,M,-1.5,M,,*7E
$GPGSA,A,3,22,31,04,27,32,19,14,,,,,,5.53,1.54,5.31*09
$GPGSV,3,1,10,04,54,211,31,14,45,140,37,18,00,100,,19,51,306,36*7E
$GPGSV,3,2,10,22,28,118,44,27,32,344,30,31,32,047,42,32,47,228,25*74
$GPGSV,3,3,10,33,42,056,40,39,05,082,*7C
$GPGLL,2627.99827,S,04906.85961,W,191148.00,A,A*66
$GPRMC,191149.00,A,2627.99826,S,04906.85961,W,0.007,,290415,,,A*73
$GPVTG,,T,,M,0.007,N,0.012,K,A*27
$GPGGA,191149.00,2627.99826,S,04906.85961,W,1,07,1.54,42.5,M,-1.5,M,,*7E
$GPGSA,A,3,22,31,04,27,32,19,14,,,,5.53,1.54,5.31*09
$GPGSV,3,1,10,04,54,211,30,14,45,140,37,18,00,100,,19,51,306,36*7F
$GPGSV,3,2,10,22,28,118,44,27,32,344,30,31,32,047,42,32,47,228,25*74
$GPGSV,3,3,10,33,42,056,40,39,05,082,*7C
$GPGLL,2627.99826,S,04906.85961,W,191149.00,A,A*66
$GPRMC,191150.00,A,2627.99825,S,04906.85960,W,0.019,,290415,,,A*76
$GPVTG,,T,,M,0.019,N,0.036,K,A*2E
$GPGGA,191150.00,2627.99825,S,04906.85960,W,1,07,1.54,42.5,M,-1.5,M,,*74
$GPGSA,A,3,22,31,04,27,32,19,14,,,,,,5.53,1.54,5.31*09
$GPGSV,3,1,10,04,54,211,31,14,45,140,37,18,100,,19,51,306,36*7E
$GPGSV,3,2,10,22,28,118,45,27,32,344,31,31,32,047,43,32,47,228,25*75
$GPGSV,3,3,10,33,42,056,40,39,05,082,*7C
$GPGLL,2627.99825,S,04906.85960,W,191150.00,A,A*6C
$GPRMC,191151.00,A,2627.99825,S,04906.85958,W,0.007,,290415,,,A*73
$GPVTG,,T,,M,0.007,N,0.013,K,A*26
$GPGGA,191151.00,2627.99825,S,04906.85958,W,1,07,1.54,42.6,M,-1.5,M,,*7D
$GPGSA,A,3,22,31,04,27,32,19,14,,,,,,5.53,1.54,5.31*09
$GPGSV,3,1,10,04,54,211,31,14,45,140,37,18,00,100,19,51,306,36*7E
$GPGSV,3,2,10,22,28,118,44,27,32,344,31,31,32,047,43,32,47,228,25*74
$GPGSV,3,3,10,33,42,056,40,39,05,082,*7C
$GPGLL,2627.99825,S,04906.85958,W,191151.00,A,A*66
$GPRMC,191152.00,A,2627.99825,S,04906.85953,W,0.010,,290415,,,A*7D
$GPVTG,,T,,M,0.010,N,0.019,K,A*2A
$GPGGA,191152.00,2627.99825,S,04906.85953,W,1,07,1.54,42.8,M,-1.5,M,,*7B
$GPGSA,A,3,22,31,04,27,32,19,14,,,,,,5.52,1.54,5.31*08
$GPGSV,3,1,10,04,54,211,31,14,45,140,37,18,00,100,,19,51,306,36*7E
$GPGSV,3,2,10,22,28,118,45,27,32,344,31,3GSV,3,3,10,33,42,056,40,39,05,082,*7C
$GPGLL,2627.99825,S,04906.85953,W,191152.00,A,A*6E
$GPRMC,191153.00,A,2627.99824,S,04906.85948,W,0.005,,290415,,,A*73
$GPVTG,,T,,M,0.005,N,0.010,K,A*27
$GPGGA,191153.00,2627.99824,S,04906.85948,W,1,07,1.54,43.0,M,-1.5,M,,*78
$GPGSA,A,3,22,31,04,27,32,19,14,,,,,,5.52,1.54,5.31*08
$GPGSV,3,1,10,04,54,211,31,14,45,140,37,18,00,100,,19,51,306,36*7E
$GPGSV,3,2,10,22,28,118,44,27,32,344,31,31,32,047,42,32,47,228,23*73
$GPGSV,3,3,10,33,42,056,40,39,05,082,*7C
$$GPRMC,191154.00,A,2627.99823,S,04906.85944,W,0.022,,290415,,,A*7A
$GPVTG,,T,,M,0.022,N,0.041,K,A*26
$GPGGA,191154.00,2627.99823,S,04906.85944,W,1,07,1.54,43.2,M,-1.5,M,,*76
$GPGSA,A,3,22,31,04,27,32,19,14,,,,,,5.52,1.54,5.30*09
$GPGSV,3,1,10,04,54,211,31,14,45,140,38,18,00,100,,19,51,306,36*71
$GPGSV,3,2,10,22,28,118,44,27,32,344,31,31,32,047,42,32,47,228,23*73
$GPGSV,3,3,10,33,42,056,40,39,05,082,*7C
$GPGLL,2627.99823,S,04906.85944,W,191154.00,A,A*68
$GPRMC,191155.00,A,2627.99822,S,04906.85941,W,0.021,,290415,,,A*7C
$GPVTG,,T,,M,0.021,N,0.040,K,A*24
$GPGGA,191155.00,2627.99822,S,04906.85941,W,1,07,1.54,43.3,M,-1.5,M,,*72
$GPGSA,A,3,22,31,04,27,32,19,14,,,,,,5.52,1.54,5.30*09
$GPGSV,3,1,10,04,54,211,32,14,44,140,38,18,00,100,,19,51,306,36*73
$GPGSV,3,2,10,22,28,118,45,27,32,344,31,31,32,047,42,32,47,228,23*72
$GPGSV,3,3,10,33,42,056,40,39,05,082,*7C
$GPGLL,2627.99822,S,04906.85941,W,191155.00,A,A*6D
$GPRMC,191156.00,A,2627.99820,S,04906.85939,W,0.006,,290415,,,A*77
$GPVTG,,T,,M,0.006,N,0.010,K,A*24
$GPGGA,191156.00,2627.99820,S,04906.85939,W,1,07,1.54,43.3,M,-1.5,M,,*7C
$GPGSA,A,3,22,31,04,27,32,19,14,,,,,,5.52,1.54,5.30*09
$GPGSV,3,1,10,04,54,211,32,14,44,140,38,18,00,100,,19,51,306,36*73
$GPGSV,3,2,10,22,28,118,45,27,32,344,30,31,32,047,42,32,47,228,23*73
$GPGSV,3,3,10,33,42,056,40,39,05,082,*7C
$GPGLL,2627.99820,S,04906.85939,W,191156.00,A,A*63
$GPRMC,191157.00,A,2627.99818,S,04906.85935,W,0.005,,290415,,,A*72
$GPVTG,,T,,M,0.005,N,0.009,K,A*2F
$GPGGA,191157.00,2627.99818,S,04906.85935,W,1,07,1.54,43.5,M,-1.5,M,,*7C
$GPGSA,A,3,22,31,04,27,32,19,14,,,,,,5.52,1.54,5.30*09
$GPGSV,3,1,10,04,54,211,31,14,44,140,38,18,00,100,,19,51,306,36*70
$GPGSV,3,2,10,22,28,118,45,27,32,344,29,31,32,047,42,32,47,228,22*7A
$GPGSV,3,3,10,33,42,056,40,39,05,082,*7C
$GPGLL,2627.99818,S,04906.85935,W,191157.00,A,A*65
$GPRMC,191158.00,A,2627.99816,S,04906.85931,W,0.013,,290415,,,A*70
$GPVTG,,T,,M,0.013,N,0.024,K,A*27
$GPGGA,191158.00,2627.99816,S,04906.85931,W,1,07,1.54,43.7,M,-1.5,M,,*7B
$GPGSA,A,3,22,31,04,27,32,19,14,,,,5.52,1.54,5.30*09
$GPGSV,3,1,10,04,54,211,32,14,44,140,38,18,00,100,,19,51,306,36*73
$GPGSV,3,2,10,22,28,118,45,27,32,344,28,31,32,047,42,32,47,228,21*78
$GPGSV,3,3,10,33,42,056,40,39,05,082,*7C
$GPGLL,2627.99816,S,04906.85931,W,191158.00,A,A*60
$GPRMC,191159.00,A,2627.99815,S,04906.85925,W,0.012,,290415,,,A*76
$GPVTG,,T,,M,0.012,N,0.021,K,A*23
$GPGGA,191159.00,2627.99815,S,04906.85925,W,1,07,1.97,43.9,M,-1.5,M,,*7D
$GPGSA,A,3,22,31,04,27,32,19,14,,,,,,6.34,1.97,6.03*06
$GPGSV,3,1,09,04,54,211,32,14,44,140,38,19,51,,22,28,118,45*70
$GPGSV,3,2,09,27,32,344,29,31,32,047,42,32,47,228,21,33,42,056,40*73
$GPGSV,3,3,09,39,05,082,*45
$GPGLL,2627.99815,S,04906.85925,W,191159.00,A,A*67
$GPRMC,191200.00,A,2627.99813,S,04906.85923,W,0.015,,290415,,,A*7E
$GPVTG,,T,,M,0.015,N,0.027,K,A*22
$GPGGA,191200.00,2627.99813,S,04906.85923,W,1,07,1.97,44.0,M,-1.5,M,,*7C
$GPGSA,A,3,22,31,04,27,32,19,14,,,,,,6.34,1.97,6.03*06
$GPGSV,3,1,09,04,54,211,32,14,44,140,38,19,51,306,36,22,28,118,45*70
$GPGSV,3,2,09,27,32,344,29,31,32,047,42,32,47,228,20,33,42,056,40*72
$GPGSV,3,3,09,39,05,082,*45
$GPGLL,2627.99813,S,04906$GPRMC,191201.00,A,2627.99811,S,04906.85922,W,0.009,,290415,,,A*71
$GPVTG,,T,,M,0.009,N,0.016,K,A*2D
$GPGGA,191201.00,2627.99811,S,04906.85922,W,1,07,1.97,43.9,M,-1.5,M,,*70
$GPGSA,A,3,22,31,04,27,32,19,14,,,,,,6.34,1.97,6.02*07
$GPGSV,3,1,09,04,54,211,32,14,44,140,38,19,51,306,36,22,28,118,45*70
$GPGSV,3,2,09,27,32,344,30,31,32,047,42,32,47,228,19,33,42,056,40*70
$GPGSV,3,3,09,39,05,082,*452,W,191201.00,A,A*6A
$GPRMC,191202.00,A,2627.99810,S,04906.85920,W,0.014,,290415,,,A*7D
$GPVTG,,T,,M,0.014,N,0.027,K,A*23
$GPGGA,191202.00,2627.99810,S,04906.85920,W,1,07,1.97,44.0,M,-1.5,M,,*7E
$GPGSA,A,3,22,31,04,27,32,19,14,,,,,,6.34,1.97,6.02*07
$GPGSV,3,1,09,04,54,211,32,14,44,140,38,19,51,306,36,22,28,118,45*70
$GPGSV,3,2,09,27,32,344,31,31,32,047,43,32,47,228,18,33,42,056,40*71
$GPGSV,3,3,09,39,05,082,*45
$GPGLL,2627.99810,S,04906.85920,W,191202.00,A,A*6A
$GPRMC,191203.00,A,2627.99809,S,04906.85915,W,0.032,,290415,,,A*76
$GPVTG,,T,,M,0.032,N,0.059,K,A*2E
$GPGGA,191203.00,2627.99809,S,04906.85915,W,1,07,1.54,44.3,M,-1.5,M,,*7D
$GPGSA,A,3,22,31,04,27,32,19,14,,,,,,5.51,1.54,5.29*02
$GPGSV,3,1,09,04,54,211,32,14,44,140,38,19,51,306,36,22,27,117,45*70
$GPGSV,3,2,09,27,32,344,31,31,32,047,43,32,47,228,18,33,42,056,40*71
$GPGSV,3,3,09,39,05,082,*45
$GPGLL,2627.99809,S,04906.85915,W,191203.00,A,A*65
$GPRMC,191204.00,A,2627.99808,S,04906.85908,W,0.030,,290415,,,A*7E
$GPVTG,,T,,M,0.030,N,0.056,K,A*23
$GPGGA,191204.00,2627.99808,S,04906.85908,W,1,06,1.97,44.5,M,-1.5,M,,*7F
$GPGSA,A,3,22,31,04,27,19,14,,,,,,,6.33,1.97,6.02*01
$GPGSV,3,1,09,04,54,211,32,14,44,140,38,19,51,306,37,22,27,117,45*71
$GPGSV,3,2,09,27,32,344,31,31,32,047,43,32,47,228,,33,42,056,40*78
$GPGSV,3,3,09,39,05,082,*45
$GPGLL,2627.99808,S,04906.85908,W,191204.00,A,A*6F
$GPRMC,191205.00,A,2627.99807,S,04906.85902,W,0.030,,290415,,,A*7A
$GPVTG,,T,,M,0.030,N,0.056,K,A*23
$GPGGA,191205.00,2627.99807,S,04906.85902,W,1,06,1.97,44.5,M,-1.5,M,,*7B
$GPGSA,A,3,22,31,04,27,19,14,,,,,,,6.33,1.97,6.01*02
$GPGSV,3,1,09,04,54,211,32,14,44,140,38,19,51,306,37,22,27,117,45*71
$GPGSV,3,2,09,27,32,344,31,31,32,047,42,32,47,228,,33,42,056,40*79
$GPGSV,3,3,09,39,05,082,*45
$GPGLL,2627.99807,S,04906.85902,W,191205.00,A,A*6B
$GPRMC,191206.00,A,2627.99804,S,04906.85897,W,0.019,,290415,,,A*7C
$GPVTG,,T,,M,0.019,N,0.034,K,A*2C
$GPGGA,191206.00,2627.99804,S,04906.85897,W,1,06,1.97,44.4,M,-1.5,M,,*77
$GPGSA,A,3,22,31,04,27,19,14,,,,,,,6.33,1.97,6.01*02
$GPGSV,3,1,09,04,54,211,32,14,4140,38,19,51,306,37,22,27,117,45*71
$GPGSV,3,2,09,27,32,344,31,31,32,047,42,32,47,228,,33,42,056,40*79
$GPGSV,3,3,09,39,05,082,*45
$GPGLL,2627.99804,S,04906.85897,W,191206.00,A,A*66
$GPRMC,191207.00,A,2627.99801,S,04906.85892,W,0.017,,290415,,,A*73
$GPVTG,,T,,M,06.85892,W,1,06,1.97,44.4,M,-1.5,M,,*76
$GPGSA,A,3,22,31,04,27,19,14,,,,,,,6.32,1.97,6.01*03
$GPGSV,3,1,09,04,54,211,32,14,44,140,38,19,51,306,37,22,27,117,45*71
$GPGSV,3,2,09,27,32,344,31,31,32,047,42,32,47,228,,33,42,056,40
$GPGSV,3,3,09,39,05,082,*45
$GPGLL,2627.99801,S,04906.85892,W,191207.00,A,A*67
$GPRMC,191208.00,A,2627.99798,S,04906.85886,W,0.015,,290415,,,A*74
$GPVTG,,T,,M,0.015,N,0.029,K,A*2C
$GPGGA,191208.00,2627.99798,S,04906.85886,W,1,06,1.97,44.4,M,-1.5,M,,*73
$GPGSA,A,3,22,31,04,27,19,14,,,,,,,6.32,1.97,6.01*03
$GPGSV,3,1,09,04,54,211,32,14,44,140,38,19,51,306,37,22,27,117,45*71
$GPGSV,3,2,09,27,32,344,30,31,32,047,42,32,47,228,,33,42,056,40*78
$GPGSV,3,3,09,39,05,082,*45
$GPGLL,2628,S,04906.85886,W,191208.00,A,A*62
$GPRMC,191209.00,A,2627.99796,S,04906.85879,W,0.026,,290415,,,A*7B
$GPVTG,,T,,M,0.026,N,0.048,K,A*2B
$GPGGA,191209.00,2627.99796,S,04906.85879,W,1,06,1.97,44.5,M,-1.5,M,,*7D
$GPGSA,A,3,22,31,04,27,19,14,,,,,,,6.32,1.97,6.01*03
$GPGSV,3,1,09,04,54,211,32,14,44,140,37,19,51,306,37,22,27,117,45*7E
$GPGSV,3,2,09,27,32,344,29,31,32,047,43,32,47,228,,33,42,056,40*71
$GPGSV,3,3,09,39,05,082,*45
$GPGLL,2627.99796,S,04906.85879,W,191209.00,A,A*6D
$GPRMC,191210.00,A,2627.99794,S,04906.85872,W,0.018,,290415,,,A*77
$GPVTG,,T,,M,0.018,N,0.033,K,A*2A
$GPGGA,191210.00,2627.99794,S,04906.85872,W,1,06,1.97,44.6,M,-1.5,M,,*7F
$GPGSA,A,3,22,31,04,27,19,14,,,,,,,6.32,1.97,6.00*02
$GPGSV,3,1,09,04,54,211,32,14,44,140,37,19,51,306,37,22,27,117,45*7E
$GPGSV,3,2,09,27,32,344,28,31,32,047,42,32,47,228,,33,42,056,40*71
$GPGSV,3,3,09,39,05,082,*45
$GPGLL,2627.99794,S,04906.85872,W,191210.00,A,A*6C
$GPRMC,191211.00,A,2627.99794,S,04906.85867,W,0.015,,290415,,,A*7F
$GPVTG,,T,,M,0.015,N,0.028,K,A*2D
$GPGGA,191211.00,2627.99794,S,04906.85867,W,1,06,1.97,44.6,M,-1.5,M,,*7A
$GPGSA,A,3,22,31,04,27,19,14,,,,,,,6.31,1.97,6.00*01
$GPGSV,3,1,09,04,54,211,32,14,44,140,37,19,51,306,37,22,27,117,45*7E
$GPGSV,3,2,09,27,32,344,27,31,32,047,43,32,47,228,,33,42,056,40*7F
$GPGSV,3,3,09,39,05,082,*45
$GPGLL,2627.99794,S,04906.85867,W,191211.00,A,A*69
$GPRMC,191212.00,A,2627.99793,S,04906.85861,W,0.016,,290415,,,A*7E
$GPVTG,,T,,M,0.016,N,0.029,K,A*2F
$GPGGA,191212.00,2627.99793,S,04906.85861,W,1,06,1.97,44.7,M,-1.5,M,,*79
$GPGSA,A,3,22,31,04,27,19,14,,,,,,,6.31,1.97,6.00*01
$GPGSV,3,1,09,04,54,211,33,14,44,140,37,19,51,306,37,22,27,117,45*7F
$GPGSV,3,2,09,27,32,344,26,31,33,047,43,32,47,228,,33,42,056,40*7F
$GPGSV,3,3,09,39,05,082,*45
$GPGLL,2627.99793,S,04906.85861,W,191212.00,A,A*6B
$GPRMC,191213.00,A,2627.99794,S,04906.85854,W,0.032,,290415,,,A*78
$GPVTG,,T,,M,0.032,N,0.059,K,A*2E
$GPGGA,191213.00,2627.99794,S,04906.85854,W,1,06,1.97,44.9,M,-1.5,M,,*77
$GPGSA,A,3,22,31,04,27,19,14,,,,,,6.31,1.97,6.00*01
$GPGSV,3,1,09,04,54,211,33,14,44,140,37,19,51,306,37,22,27,117,45*7F
$GPGSV,3,2,09,27,32,344,26,31,33,047,43,32,47,228,16,33,42,056,40*78
$GPGSV,3,3,09,39,05,082,*45
$GPGLL,2627.99794,S,04906.85854,W,191213.00,A,A*6B
$GPRMC,191214.00,A,2627.99793,S,04906.85845,W,0.154,,290415,,,A*79
$GPVTG,,T,,M,0.154,N,0.285,K,A*2C
$GPGGA,191214.00,2627.99793,S,0427,19,14,,,,,,,6.31,1.97,5.99*02
$GPGSV,3,1,09,04,54,211,33,14,44,140,37,19,51,306,37,22,27,117,45*7F
$GPGSV,3,2,09,27,32,344,27,31,33,047,43,32,47,228,153,42,056,40*7A
$GPGSV,3,3,09,39,05,082,*45
$GPGLL,2627.99793,S,04906.85845,W,191214.00,A,A*6B
$GPRMC,191215.00,A,2627.99793,S,04906.85832,W,0.058,,290415,,,A*75
$GPVTG,,T,,M,0.058,N,0.108,K,A*27
$GPGGA,191215.00,2627.99793,S,04906.85832,W,1,06,1.97,45.6,M,-1.5,M,,*78
$GPGSA,A,3,22,31,04,27,19,14,,,,,,,6.31,1.97,5.99*02
$GPGSV,3,1,09,04,54,211,32,14,44,140,37,19,51,306,36,22,27,117,45*7F
$GPGSV,3,2,09,27,32,344,27,31,33,047,43,32,47,228,16,33,42,056,40*79
$GPGSV,3,3,09,39,05,082,*45
$GPGLL,26279793,S,04906.85832,W,191215.00,A,A*6A
$GPRMC,191216.00,A,2627.99791,S,04906.85831,W,0.069,,290415,,,A*75
$GPVTG,,T,,M,0.069,N,0.128,K,A*27
$GPGGA,191216.00,2627.99791,S,04906.85831,W,1,06,1.97,45.6,M,-1.5,M,,*7A
$GPGSA,A,3,22,31,04,27,19,14,,,,,,,6.30,1.97,5.99*03
$GPGSV,3,1,09,04,54,211,33,14,44,140,37,19,51,306,36,22,27,117,45*7E
$GPGSV,3,2,09,27,32,344,28,31,33,047,43,32,47,228,,33,42,056,40*71
$GPGSV,3,3,09,39,05,082,*45
$GPGLL,2627.99791,S,04906.85831,W,191216.00,A,A*68
$GPRMC,191217.00,A,2627.99791,S,04906.85824,W,0.070,,290415,,,A*78
$GPVTG,,T,,M,0.070,N,0.129,K,A*2E
$GPGGA,191217.00,2627.99791,S,04906.85824,W,1,06,1.97,45.8,M,-1.5,M,,*71
$GPGSA,A,3,22,31,04,27,19,14,,,,,,,6.30,1.97,5.99*03
$GPGSV,3,1,09,04,54,211,32,14,44,140,37,19,51,306,37,28,,33,42,056,40*71
$GPGSV,3,3,09,39,05,082,*45
$GPGLL,2627.99791,S,04906.85824,W,191217.00,A,A*6D
$GPRMC,191218.00,A,2627.99790,S,04906.85816,W,0.071,,290415,,,A*76
$GPVTG,,T,,M,0.071,N,0.132,K,A*25
$GPGGA,191218.00,2627.99790,S,0406.85816,W,1,06,1.97,45.9,M,-1.5,M,,*7F
$GPGSA,A,3,22,31,04,27,19,14,,,,,,,6.30,1.97,5.98*02
$GPGSV,3,1,09,04,54,211,32,14,44,140,36,19,51,306,37,22,27,117,45*7F
$GPGSV,3,2,09,27,32,344,29,31,33,047,43,32,47,228,,33,42,056,40*70
$GPGSV,3,3,09,39,05,082,*45
$GPGLL,2627.99790,S,04906.85816,W,191218.00,A,A*62
$GPRMC,191219.00,A,2627.99789,S,04906.85807,W,0.173,,290415,,,A*7C
$GPVTG,,T,,M,0.173,N,0.320,K,A*27
$GPGGA,191219.00,2627.99789,S,04906.85807,W,1,06,1.97,46.2,M,-1.5,M,,*7E
$GPGSA,A,3,22,31,04,27,19,14,,,,,,,6.30,.98*02
$GPGSV,3,1,09,04,54,211,33,14,44,140,36,19,51,306,37,22,27,117,45*7E
$GPGSV,3,2,09,27,32,344,29,31,33,047,43,32,47,228,,33,42,056,40*70
$GPGSV,3,3,09,39,05,082,*45
$GPGLL,2627.99789,S,04906.85807,W,191219.00,A,A*6B
$GPRMC,191220.00,A,2627.99788,S,04906.85794,W,0.058,,290415,,,A*7A
$GPVTG,,T,,M,0.058,N,0.107,K,A*28
$GPGGA,191220.00,2627.99788,S,04906.85794,W,1,06,1.97,46.4,M,-1.5,M,,*76
$GPGSA,A,3,22,31,04,27,19,14,,,,,,,6.29,1.97,5.98*0A
$GPGSV,3,1,09,04,54,211,33,14,44,140,36,19,5GSV,3,2,09,27,32,344,29,31,33,047,43,32,47,228,,33,42,056,40*70
$GPGSV,3,3,09,39,05,082,*45
$GPGLL,2627.99788,S,04906.85794,W,191220.00,A,A*65
$GPRMC,191221.00,A,2627.99788,S,04906.85791,W,0.035,,290415,,,A*75
$GPVTG,,T,,M,0.035,N,0.064,K,A*27
$GPGGA,191221.00,2627.99788,S,04906.85791,W,1,06,1.96,46.5,M,-1.5,M,,*72
$GPGSA,A,3,22,31,04,27,19,14,,,,,,,6.29,1.96,5.98*0B
$GPGSV,3,1,09,04,54,211,33,14,44,140,36,19,51,306,36,22,27,117,45*7F
$GPGSV,3,2,09,27,32,344,29,31,,2627.99788,S,04906.85791,W,191221.00,A,A*61
$GPRMC,191222.00,A,2627.99789,S,04906.85787,W,0.055,,290415,,,A*76
$GPVTG,,T,,M,0.055,N,0.101,K,A*23
$GPGGA,191222.00,2627.99789,S,04906.85787,W,1,07,1.96,46.7,M,-1.5,M,,*74
$GPGSA,A,3,22,31,04,27,32,19,14,,,,,,6.29,1.96,5.97*05
$GPGSV,3,1,09,04,54,211,33,14,44,140,36,19,51,306,36,22,27,117,45*7F
$GPGSV,3,2,09,27,32,344,29,31,33,047,42,32,47,228,20,33,42,056,40*73
$GPGSV,3,3,09,39,05,082,*45
$GPGLL,2627.99789,S,04906.85787,W,191222.00,A,A*64
$GPRMC,191223.00,A,2627.99790,S,04906.85785,W,0.033,,290415,,,A*7D
$GPVTG,,T,,M,0.033,N,0.062,K,A*27
$GPGGA,191223.00,2627.99790,S,04906.85785,W,1,07,1.96,46.9,M,-1.5,M,,*71
$GPGSA,A,3,22,31,04,27,32,19,14,,,,,,6.29,1.96,5.97*05
$GPGSV,3,1,09,04,54,211,33,14,44,140,36,19,51,306,36,22,27,117,45*7F
$GPGSV,3,2,09,27,32,344,28,31,33,047,43,32,47,228,20,33,42,056,40*73
$GPGSV,3,3,09,39,05,082,*45
$GPGLL,2627.99790,S,04906.85785,W,191223.00,A,A*6F
$GPRMC,191224.00,A,2627.99790,S,04906.85785,W,0.025,,290415,,,A*7D
$GPVTG,,T,,M,0.025,N,0.046,K,A*26
$GPGGA,191224.00,2627.99790,S,04906.85785,W,1,07,1.96,46.9,M,-1.5,M,,*76
$GPGSA,A,3,22,31,04,27,32,19,14,,,,,,6.28,1.96,5.97*04
$GPGSV,3,1,09,04,54,211,33,14,44,140,36,19,51,306,36,22,27,117,45*7F
$GPGSV,3,2,09,27,32,344,28,31,33,047,42,32,47,228,20,33,42,056,40*72
$GPGSV,3,3,09,39,05,082,*45
$GPGLL,2627.99790,S,04906.85785,W,191224.00,A,A*68
$GPRMC,191225.00,A,2627.99791,S,04906.85785,W,0.016,,290415,,,A*7D
$GPVTG,,T,,M,0.016,N,0.030,K,A*27
$GPGGA,191225.00,2627.99791,S,04906.85785,W,1,07,1.53,46.8,M,-1.5,M,,*7E
$GPGSA,A,3,22,31,,27,32,19,14,,,,,,5.48,1.53,5.26*02
$GPGSV,3,1,09,04,54,211,33,14,44,140,36,19,51,306,36,22,27,117,45*7F
$GPGSV,3,2,09,27,32,344,27,31,33,047,43,32,47,228,20,33,42,056,40*7C
$GPGSV,3,3,09,39,05,082,*45
$GPGLL,2627.99791,S,04906.85785,W,191225.00,A,A*68
$GPRMC,191226.00,A,2627.99791,S,04906.85781,W,0.038,,290415,,,A*76
$GPVTG,,T,,M,0.038,N,0.071,K,A*2E
$GPGGA,191226.00,2627.99791,S,04906.85781,W,1,07,1.53,46.9,M,-1.5,M,,*78
$GPGSA,A,3,22,31,04,27,32,19,14,,,,5.48,1.53,5.26*02
$GPGSV,3,1,09,04,54,211,33,14,44,140,36,19,51,306,36,22,27,117,45*7F
$GPGSV,3,2,09,27,32,344,26,31,33,047,43,32,47,228,21,33,42,056,40*7C
$GPGSV,3,3,09,39,05,082,*45
$GPGLL,2627.99791,S,04906.85781,W,191226.00,A,A*6F
$GPRMC,191227.00,A,2627.99792,S,04906.85773,W,0.052,,290415,,,A*75
$GPVTG,,T,,M,0.052,N,0.096,K,A*2B
$GPGGA,191227.00,2627.99792,S,04906.85773,W,1,07,1.53,47.4,M,-1.5,M,,*7B
$GPGSA,A,3,22,31,04,27,32,19,14,,,,,,5.48,1.53,5.26*02
$GPGSV,3,1,09,04,54,211,33,14,440,36,19,51,306,36,22,27,117,45*7F
$GPGSV,3,2,09,27,32,344,26,31,33,047,43,32,47,$GPRMC,191228.00,A,2627.99791,S,04906.85773,W,0.073,,290415,,,A*7A
$GPVTG,,T,,M,0.073,N,0.135,K,A*20
$GPGGA,191228.00,2627.99791,S,04906.85773,W,1,07,1.53,47.4,M,-1.5,M,,*77
$GPGSA,A,3,22,31,04,27,32,19,14,,,,,,5.48,122,27,117,45*7C
$GPGSV,3,2,09,27,32,344,26,31,33,047,43,32,47,228,21,33,42,056,40*7C
$GPGSV,3,3,09,39,05,082,*45
$GPGLL,2627.99791,S,04906.85773,W,191228.00,A,A*6C
$GPRMC,191229.00,A,2627.99789,S,04906.85777,W,0.033,,290415,,,A*72
$GPVTG,,T,,M,0.033,N,0.061,K,A*24
$GPGGA,191229.00,2627.99789,S,04906.85777,W,1,07,1.53,47.1,M,-1.5,M,,*7E
$GPGSA,A,3,22,31,04,27,32,19,14,,,,,,5.48,1.53,5.26*02
$GPGSV,3,1,09,04,54,211,34,14,44,140,36,19,51,306,36,22,27,117,44*79
$GPGSV,3,2,09,27,32,344,26,31,33,047,43,32,47,228,22,33,42,056,40*7F
$GPGSV,3,3,09,39,05,082,*45
$GPGLL,2627.99789,S,04906.85777,W,191229.00,A,A*60
$GPRMC,191230.00,A,2627.99787,S,04906.85781,W,0.021,,290415,,,A*7E
$GPVTG,,T,,M,0.021,N,0.039,K,A*2A
$GPGGA,191230.00,2627.99787,S,04906.8,*78
$GPGSA,A,3,22,31,04,27,32,19,14,,,,,,5.48,1.53,5.26*02
$GPGSV,3,1,09,04,54,211,34,14,44,140,36,19,51,306,36,22,27,117,44*79
$GPGSV,3,2,09,27,32,344,27,31,33,047,42,32,47,228,22,33,42,056,40*7F
$GPGSV,3,3,09,39,05,082,*45
$GPGLL,2627.99787,S,04906.85781,W,191230.00,A,A*6F
$GPRMC,191231.00,A,2627.99786,S,04906.85784,W,0.025,,290415,,,A*7F
$GPVTG,,T,,M,0.025,N,0.047,K,A*27
$GPGGA,191231.00,2627.99786,S,04906.85784,W,1,07,1.53,46.8,M,-1.5,M,,*7C
$GPGSA,A,3,22,3,04,27,32,19,14,,,,,,5.48,1.53,5.26*02
$GPGSV,3,1,09,04,54,211,34,14,44,140,36,19,51,306,35,22,27,117,44*7A
$GPGSV,3,2,09,27,32,344,28,31,33,047,42,32,47,228,22,33,42,056,40*70
$GPGSV,3,3,09,39,05,082,*45
$GPGLL,2627.99786,S,04906.85784,W,191231.00,A,A*6A
$GPRMC,191232.00,A,2627.99784,S,04906.85786,W,0.022,,290415,,,A*7B
$GPVTG,,T,,M,0.022,N,0.042,K,A*25
$GPGGA,191232.00,2627.99784,S,04906.85786,W,1,07,1.53,46.7,M,-1.5,M,,*70
$GPGSA,A,3,22,31,04,27,32,19,14,,,,,,5.47,1.53,5.25*0E
$GPGSV,3,1,09,04,54,211,34,14,44,140,36,19,51,3035,22,27,117,44*7A
$GPGSV,3,2,09,27,32,344,28,31,33,047,42,32,47,228,22,33,42,056,40*70
$GPGSV,3,3,09,39,05,082,*45
$GPGLL,2627.99784,S,04906.85786,W,191232.00,A,A*69
$GPRMC,191233.00,A,2627.99782,S,04906.85789,W,0.016,,290415,,,A*74
$GPVTG,,T,,M,0.016,N,0.030,K,A*27
$GPGGA,191233.00,2627.99782,S,04906.85789,W,1,07,1.53,46.6,M,-1.5,M,,*79
$GPGSA,A,3,22,31,04,27,32,19,14,,,,,,5.47,1.53,5.25*0E
$GPGSV,3,1,09,04,54,211,34,14,44,140,36,19,51,306,35,22,27,117,45*7B
$GPGSV,3,2,09,27,32,344,29,31,33,047,43,32,47,228,233,42,056,40*71
$GPGSV,3,3,09,39,05,082,*45
$GPGLL,2627.99782,S,04906.85789,W,191233.00,A,A*61
$GPRMC,191234.00,A,2627.99780,S,04906.85791,W,0.021,,290415,,,A*7C
$GPVTG,,T,,M,0.021,N,0.038,K,A*2B
$GPGGA,191234.00,2627.99780,S,04906.85791,W,1,07,1.53,46.5,M,-1.5,M,,*76
$GPGSA,A,3,22,31,04,27,32,19,14,,,,,,5.47,1.53,5.25*0E
$GPGSV,3,1,09,04,54,211,34,14,44,140,36,19,51,306,35,22,27,117,45*7B
$GPGSV,3,2,09,27,32,344,29,31,33,047,43,32,47,228,23,33,42,056,40*71
$GPGSV,3,3,09,39,05,082,*45
$GPL,2627.99780,S,04906.85791,W,191234.00,A,A*6D
$GPRMC,191235.00,A,2627.99779,S,04906.85791,W,0.026,,290415,,,A*00,2627.99779,S,04906.85791,W,1,07,1.53,46.6,M,-1.5,M,,*72
$GPGSA,A,3,22,31,04,27,32,19,14,,,,,,5.47,1.53,5.25*0E
$GPGSV,3,1,09,04,54,211,34,14,44,140,36,19,51,306,34,22,27,117,45*7A
$GPGSV,3,2,09,27,32,344,29,31,33,047,43,32,47,228,23,33,42,056,40*71
$GPGSV,3,3,09,39,05,082,*45
$GPGLL,2627.99779,S,04906.85791,W,191235.00,A,A*6A
