$GPRMC,,V,,,,,,,,,,N*53
$GPVTG,,,,,,,,,N*30
$GPGGA,,,,,,0,00,99,99.99*30
$GPGSV,1,1,00*79
$GPGLL,,,,,,V,N*64
$GPTXT,01,01,02,ANTSTATUS=INIT*25
$GPRMC,,V,,,,,,,,,,N*53
$GPVTG,,,,,,,,,N*30
$GPGGA,,,,,,0,00,99.99,,,,,,*48
$GPGSA,A,1,,,,,,,,,,,,,99.99,99.99,99.99*30
$GPGSV,1,1,00*79
$GPGLL,,,,,,V,N*64
$GPTXT,01,01,02,ANTSTATUS=OK*3B
$GPRMC,,V,,,,,,,,,,N*53
$GPVTG,,,,,,,,,N*30
$GPGGA,,,,,,0,00,99.99,,,,,,*48
$GPGSA,A,1,,,,,,,,,,,,,99.99,99.99,99.99*30
$GPGSV,1,1,00*79
$GPGLL,,,,,,V,N*64
$GPRMC,,V,,,,,,,,,,N*53
$GPVTG,,,,,,,,,N*30
$GPGGA,,,,,,0,00,99.99,,,,,,*48
$GPGSA,A,1,,,,,,,,,,,,,99.99,99.99,99.99*30
$GPGSV,1,1,00*79
$GPGLL,,,,,,V,N*64
$GPRMC,,V,,,,,,,,,,N*53
$GPVTG,,,,,,,,,N*30
$GPGGA,,,,,,0,00,99.99,,,,,,*48
$GPGSA,A,1,,,,,,,,,,,,,99.99,99.99,99.99*30
$GPGSV,1,1,03,31,,,45,33,,,41,51,,,43*7F
$GPGLL,,,,,,V,N*64
$GPRMC,,V,,,,,,,,,,N*53
$GPVTG,,,,,,,,,N*30
$GPGGA,,,,,,0,00,99.99,99.99*30
$GPGSV,2,1,05,19,,,48,27,,,45,31,,,47,33,,,42*78
$GPGSV,2,2,05,51,,,43*7F
$GPGLL,,,,,,V,N*64
$GPRMC,,V,,,,,,,,,,N*53
$GPVTG,,,,,,,,,N*30
$GPGGA,,,,,,0,00,99.99,,,,,,*48
$GPGSA,A,1,,,,,,,,,,,,,99.99,99.99,99.99*30
$GPGSV,2,1,05,19,,,47,27,,,48,31,,,47,33,,,42*7A
$GPGSV,2,2,05,51,,,39*72
$GPGLL,,,,,,V,N*64
$GPRMC,,V,,,,,,,,,,N*53
$GPVTG,,,,,,,,,N*30
$GPGGA,,,,,,0,00,99.99,,,,,,*48
$GPGSA,A,1,,,,,,,,,,,,,99.99,99.99,99.99*30
$GPGSV,2,1,05,19,,,38,27,,,41,31,,,47,33,,,43*7A
$GPGSV,2,2,05,51,,,35*7E
$GPGLL,,,,,,V,N*64
$GPRMC,,V,,,,,,,,,,N*53
$GPVTG,,,,,,,,,N*30
$GPGGA,,,,,,0,00,99.99,,,,,,*48
$GPGSA,A,1,,,,,,,,,,,,,99.99,99.99,99.99*30
$GPGSV,3,1,11,01,,,48,03,,,40,04,,,30,11,,,50*73
$GPGSV,3,2,11,19,,,42,22,,,33,27,,,40,31,,,40*71
$GPGSV,3,3,11,32,,,47,33,,,36,51,,,45*7B
$GPGLL,,,,,,V,N*64
$GPRMC,,V,,,,,,,,,,N*53
$GPVTG,,,,,,,,,N*30
$GPGGA,,,,,,0,00,99.99,,,,,,*48
$GPGSA,A,1,,,,,,,,,,,,,99.99,99.99,99.99*30
$GPGSV,3,1,11,01,,,44,03,,,39,04,,,48,11,,,45*7A
$GPGSV,3,2,11,19,,,41,22,,,33,27,,,45,31,,,45*72
$GPGSV,3,3,11,32,,,47,33,,,42,51,,,37*7D
$GPGLL,,,,,,V,N*64
$GPRMC,,V,,,,,,,,,,N*53
$GPVTG,,,,,,,,,N*30
$GPGGA,,,,,,0,00,99.99,,,,,,*48
$GPGSA,A,1,,,,,,,,,,,,,99.99,99.99,99.99*30
$GPGSV,3,1,12,01,,,45,03,,,37,04,,,49,11,,,46*74
$GPGSV,3,2,12,14,,,34,19,,,45,23,,,43,27,,,45*72
$GPGSV,3,3,12,31,,,41,32,,,45,33,,,39,51,,,42*75
$GPGLL,,,,,,V,N*64
$GPRMC,,V,,,,,,,,,,N*53
$GPVTG,,,,,,,,,N*30
$GPGGA,,,,,,0,00,99.99,,,,,,*48
$GPGSA,A,1,,,,,,,,,,,,,99.99,99.99,99.99*30
$GPGSV,3,1,12,01,,,42,03,,,42,04,,,47,11,,,46*7F
$GPGSV,3,2,12,14,,,39,19,,,43,23,,,41,27,,,44*7A
$GPGSV,3,3,12,31,,,44,32,,,46,33,,,41,51,,,38*71
$GPGLL,,,,,,V,N*64
$GPRMC,,V,,,,,,,,,,N*53
$GPVTG,,,,,,,,,N*30
$GPGGA,,,,,,0,00,99.99,,,,,,*48
$GPGSA,A,1,,,,,,,,,,,,,99.99,99.99,99.99*30
$GPGSV,3,1,12,01,,,42,03,,,37,04,,,44,11,,,41*79
$GPGSV,3,2,12,14,,,31,19,,,46,23,,,46,27,,,47*73
$GPGSV,3,3,12,31,,,45,32,,,44,33,,,45,51,,,36*78
$GPGLL,,,,,,V,N*64
$GPRMC,191046.59,V,,,,,,,,,,N*7A
$GPVTG,,,,,,,,,N*30
$GPGGA,191046.59,,,,,0,00,99.99,,,,,,*61
$GPGSA,A,1,,,,,,,,,,,,,99.99,99.99,99.99*30
$GPGSV,4,1,13,01,,,44,03,,,44,04,,,50,11,,,48*71
$GPGSV,4,2,13,14,,,37,19,,,46,22,,,33,23,,,43*70
$GPGSV,4,3,13,27,,,44,31,,,45,32,,,49,33,,,40*72
$GPGSV,4,4,13,51,,,40*7B
$GPGLL,,,,,191046.59,V,N*4D
$GPRMC,191047.00,V,,,,,,,300415,,,N*74
$GPVTG,,,,,,,,,N*30
$GPGGA,191047.00,,,,,0,00,99.99,,,,,,*6C
$GPGSA,A,1,,,,,,,,,,,,,99.99,99.99,99.99*30
$GPGSV,4,1,13,01,,,43,03,,,37,04,,,45,11,,,49*77
$GPGSV,4,2,13,14,,,30,19,,,48,22,,,34,23,,,38*72
$GPGSV,4,3,13,27,,,43,31,,,45,32,,,49,33,,,38*7A
$GPGSV,4,4,13,51,,,42*79
$GPGLL,,,,,191047.00,V,N*40
$GPRMC,191048.00,V,,,,,,,300415,,,N*7B
$GPVTG,,,,,,,,,N*30
$GPGGA,191048.00,,,,,0,00,99.99,,,,,,*63
$GPGSA,A,1,,,,,,,,,,,,,99.99,99.99,99.99*30
$GPGSV,3,1,12,01,,,34,03,,,26,04,,,35,11,,,31*79
$GPGSV,3,2,12,19,,,29,22,,,32,23,,,34,27,,,31*78
$GPGSV,3,3,12,31,,,40,32,,,36,33,,,37,51,,,29*73
$GPGLL,,,,,191048.00,V,N*4F
$GPRMC,191049.00,V,,,,,,,300415,,,N*7A
$GPVTG,,,,,,,,,N*30
$GPGGA,191049.00,,,,,0,00,99.99,,,,,,*62
$GPGSA,A,1,,,,,,,,,,,,,99.99,99.99,99.99*30
$GPGSV,4,1,13,01,,,32,03,,,33,04,,,37,11,,,35*7B
$GPGSV,4,2,13,14,,,29,1GPGSV,4,3,13,27,,,37,31,,,39,32,,,37,33,,,36*75
$GPGSV,4,4,13,51,,,27*7A
$GPGLL,,,,,191049.00,V,N*4E
$GPRMC,191050.00,V,,,,,,,300415,,,N*72
$GPVTG,,,,,,,,,N*30
$GPGGA,191050.00,,,,,0,00,99.99,,,,,,*6A
$GPGSA,A,1,,,,,,,,,,,,,99.99,99.99,99.99*30
$GPGSV,4,1,13,01,,,32,03,,,32,04,,,32,11,,,33*79
$GPGSV,4,2,13,14,,,28,19,,,36,22,,,28,23,,,40*70
$GPGSV,4,3,13,27,,,36,31,,,40,32,,,31,33,,,37*7D
$GPGSV,4,4,13,51,,,36*7A
$GPGLL,,,,,191050.00,V,N*46
$GPRMC,191051.00,V,,,,,,,300415,,,N*73
$GPVTG,,,,,,,,,N*30
$GPGGA,191051.00,,,,,0,00,99.99,,,,,,*6B
$GPGSA,A,1,,,,,,,,,,,,,99.99,99.99,99.99*30
$GPGSV,4,1,13,01,,,39,03,,,35,04,,,26,11,,,35*76
$GPGSV,4,2,13,14,,,28,19,,,34,22,,,27,23,,,33*79
$GPGSV,4,3,13,27,,,36,31,,,37,32,,,32,33,,,37*7E
$GPGSV,4,4,13,51,,,41*7A
$GPGLL,,,,,191051.00,V,N*47
$GPRMC,191052.00,V,,,,,,,300415,,,N*70
$GPVTG,,,,,,,,,N*30
$GPGGA,191052.00,,,,,0,00,99.99,,,,,,*68
$GPGSA,A,1,,,,,,,,,,,,,99.99,99.99,99.99*30
$GPGSV,3,1,12,01,,,35,03,,,27,04,,,35,11,,,35*7D
$GPGSV,3,2,1,14,,,26,19,,,28,22,,,24,23,,,32*7E
$GPGSV,3,3,12,27,,,33,31,,,36,32,,,34,33,,,34*79
$GPGLL,,,,,191052.00,V,N*44
$GPRMC,191053.00,V,,,,,,,300415,,,N*71
$GPVTG,,,,,,,,,N*30
$GPGGA,191053.00,,,,,0,00,99.99,,,,,,*69
$GPGSA,A,1,,,,,,,,,,,,,99.99,99.99,99.99*30
$GPGSV,3,1,12,01,,,38,03,,,41,04,,,37,11,,,44*74
$GPGSV,3,2,12,14,,,26,19,,,44,22,,,30,23,,,39*7A
$GPGSV,3,3,12,27,,,37,31,,,44,32,,,43,33,,,43*78
$GPGLL,,,,,191053.00,V,N*45
$GPRMC,191054.00,V,,,,,,,300415,,,N*76
$GPVTG,,,,,,,,,N*30
$GPGGA,191054.00,,,,,0,00,99.99,,,,,,*6E
$GPGSA,A,1,,,,,,,,,,,,,99.99,99.99,99.99*30
$GPGSV,4,1,13,01,,,41,03,,,43,04,,,37,11,,,45*7F
$GPGSV,4,2,13,14,,,39,19,,,47,22,,,38,23,,,39*79
$GPGSV,4,3,13,27,,,43,31,,,48,32,,,44,33,,,43*76
$GPGSV,4,4,13,51,,,42*79
$GPGLL,,,,,191054.00,V,N*42
$GPRMC,191055.00,V,,,,,,,300415,,,N*77
$GPVTG,,,,,,,,,N*30
$GPGGA,191055.00,,,,,0,00,99.99,,,,,,*6F
$GPGSA,A,1,,,,,,,,,,,,,99.99,99.99,99.99*30
$GPGSV,4,1,13,01,,,43,03,,,42,04,,,39,11,,,47*70
$GPGSV,4,2,13,14,,,36,19,,,49,22,,,36,23,,,41*79
$GPGSV,4,3,13,27,,,43,31,,,47,32,45,33,,,43*78
$GPGSV,4,4,13,51,,,42*79
$GPGLL,,,,,191055.00,V,N*43
$GPRMC,191056.00,V,,,,,,,300415,,,N*74
$GPVTG,,,,,,,,,N*30
$GPGGA,191056.00,,,,,0,00,99.99,,,,,,*6C
$GPGSA,A,1,,,,,,,,,,,,,99.99,99.99,99.99*30
$GPGSV,4,1,13,01,,,30,03,,,32,04,,,29,11,,,35*77
$GPGSV,4,2,13,14,,,32,19,,,28,22,,,26,23,,,29*75
$GPGSV,4,3,13,27,,,37,31,,,39,32,,,31,33,,,35*70
$GPGSV,4,4,13,51,,,30*7C
$GPGLL,,,,,191056.00,V,N*40
$GPRMC,191057.00,V,,,,,,,300415,,,N*75
$GPVTG,,,,,,,,,N*30
$GPGGA,191057.00,,,,,0,00,99.99,,,,,,*6D
$GPGSA,A,1,,,,,,,,,,,,,99.99,99.99,99.99*30
$GPGSV,4,1,13,01,,,40,03,,,39,04,,,36,11,,,40*77
$GPGSV,4,2,13,14,,,39,19,,,43,22,,,35,23,,,34*7D
$GPGSV,4,3,13,27,,,40,31,,,39,32,,,35,33,,,35*74
$GPGSV,4,4,13,51,,,38*74
$GPGLL,,,,,191057.00,V,N*41
$GPRMC,191058.00,V,,,,,,,300415,,,N*7A
$GPVTG,,,,,,,,,N*30
$GPGGA,191058.00,,,,,0,00,99.99,,,,,,*62
$GPGSA,A,1,,,,,,,,,,,,,99.99,99.99,99.99*30
$GPGSV,3,1,12,01,,,45,03,,,42,04,,,44,11,,,50*7C
$GPGSV,3,12,19,,,45,22,,,35,23,,,40,27,,,46*76
$GPGSV,3,3,12,31,,,37,32,,,48,33,,,38,51,,,41*7B
$GPGLL,,,,,191058.00,V,N*4E
$GPRMC,191059.00,V,,,,,,,300415,,,N*7B
$GPVTG,,,,,,,,,N*30
$GPGGA,191059.00,,,,,0,00,99.99,,,,,,*63
$GPGSA,A,1,,,,,,,,,,,,,99.99,99.99,99.99*30
$GPGSV,3,1,12,01,,,43,03,,,36,04,,,39,11,,,46*74
$GPGSV,3,2,45,32,,,44,33,,,43,51,,,39*71
$GPGLL,,,,,191059.00,V,N*4F
$GPRMC,191100.00,V,,,,,,,300415,,,N*76
$GPVTG,,,,,,,,,N*30
$GPGGA,191100.00,,,,,0,00,99.99,,,,,,*6E
$GPGSA,A,1,,,,,,,,,,,,,99.99,99,99.99*30
$GPGSV,3,1,12,01,,,43,03,,,39,04,,,41,11,,,48*7A
$GPGSV,3,2,12,19,,,45,22,,,32,23,,,40,27,,,44*73
$GPGSV,3,3,12,31,,,47,32,,,47,33,,,41,51,,,39*72
$GPGLL,,,,,191100.00,V,N*42
$GPRMC,191101.00,V,,,,,,,300415,,,N*77
$GPVTG,,,,,,,,,N*30
$GPGGA,191101.00,,,,,0,00,99.99,,,,,,*6F
$GPGSA,A,1,,,,,,,,,,,,,99.99,99.99,99.99*30
$GPGSV,3,1,12,01,,,38,03,,,39,04,,,36,11,,,40*7E
$GPGSV,3,2,12,19,,,46,22,,,37,23,,,36,27,,,47*77
$GPGSV,3,3,12,31,,,46,32,,,40,33,,,38,51,,,45*71
$GPGLL,,,,,191101.00,V,N*43
$GPRMC,191102.00,V,,,,,,,300415,,,N*74
$GPVTG,,,,,,,,,N*30
$GPGGA,191102.00,,,,,0,00,99.99,,,,,,*6C
$GPGSA,A,1,,,,,,,,,,,,,99.99,99.99,99.99*30
$GPGSV,3,1,12,01,,,49,03,,,41,04,,,50,11,,,50*76
$GPGSV,3,2,12,19,,,45,22,,,35,23,,,35,27,,,40*72
$GPGSV,3,3,12,31,,,45,32,,,50,33,,,41,51,,,39*76
$GPGLL,,,,,191102.00,V,N*40
$GPRMC,191103.00,V,,,,,,,300415,,,N*75
$GPVTG,,,,,,,,,N*30
$GPGGA,191103.00,,,,,0,00,99.99,,,,,,*6D
$GPGSA,A,1,,,,,,,,,,,,,99.99,99.99,99.99*30
$GPGSV,4,1,13,01,,,46,03,,,38,04,,,44,11,,,47*72
$GPGSV,4,2,13,14,,,33,19,,,43,22,,,30,23,,,34*72
$GPGSV,4,3,13,27,,,37,31,,,44,32,,,47,33,,,38*76
$GPGSV,4,4,13,51,,,42*79
$GPGLL,,,,,191103.00,V,N*41
$GPRMC,191104.00,V,,,,,,,300415,,,N*72
$GPVTG,,,,,,,,,N*30
$GPGGA,,,,,,99.99,99.99,99.99*30
$GPGSV,4,1,13,01,,,37,03,,,35,04,,,38,11,,,42*77
$GPGSV,4,2,13,14,,,28,19,,,45,22,,,29,23,,,35*77
$GPGSV,4,3,13,27,,,42,31,,,39,32,,,39,33,,,34*7B
$GPGSV,4,4,13,51,,,40*7B
$GPGLL,,,,,191104.00,V,N*46
$GPRMC,191105.00,V,,,,,,,300415,,,N*73
$GPVTG,,,,,,,,,N*30
$GPGGA,191105.00,,,,,0,00,99.99,,,,,,*6B
$GPGSA,A,1,,,,,,,,,,,,,99.99,99.99,99.99*30
$GPGSV,4,1,13,01,,,44,03,,,46,04,,,46,11,,,44*78
$GPGSV,4,2,13,14,,,40,19,,,49,22,,,39,23,,,37*76
$GPGSV,4,3,13,27,,,47,31,,,41,32,,,45,33,,,38*76
$GPGSV,4,4,13,51,,,46*7D
$GPGLL,,,,,191105.00,V,N*47
$GPRMC,191106.00,V,,,,,,,300415,,,N*70
$GPVTG,,,,,,,,,N*30
$GPGGA,191106.00,,,,,0,00,99.99,,,,,,*68
$GPGSA,A,1,,,,,,,,,,,,,99.99,99.99,99.99*30
$GPGSV,4,1,13,01,,,44,03,,,44,04,,,46,11,,,5*7B
$GPGSV,4,2,13,14,,,43,19,,,47,22,,,34,23,,,42*74
$GPGSV,4,3,13,27,,,46,31,,,41,32,,,44,33,,,42*7B
$GPGSV,4,4,13,51,,,44*7F
$GPGLL,,,,,191106.00,V,N*44
$GPRMC,191107.00,V,,,,,,,300415,,,N*71
$GPVTG,,,,,,,,,N*30
$GPGGA,191107.00,,,,,0,00,99.99,,,,,,*69
$GPGSA,A,1,,,,,,,,,,,,,99.99,99.99,99.99*30
$GPGSV,4,1,13,01,,,43,03,,,43,04,,,42,11,,,42*78
$GPGSV,4,2,13,14,,,40,19,,,48,22,,,34,23,,,42*78
$GPGSV,4,3,13,27,,,46,31,,,45,32,,,42,33,,,38*74
$GPGSV,4,4,13,51,,,44*7F
$GPGLL,,,,,1911000,V,N*45
$GPRMC,191108.00,V,,,,,,,300415,,,N*7E
$GPVTG,,,,,,,,,N*30
$GPGGA,1,,,,99.99,99.99,99.99*30
$GPGSV,4,1,13,01,,,45,03,,,41,04,,,39,11,,,45*77
$GPGSV,4,2,13,14,,,43,19,,,47,22,,,30,23,,,45*77
$GPGSV,4,3,13,27,,,47,31,,,44,32,,,44,33,,,36*7C
$GPGSV,4,4,13,51,,,44*7F
$GPGLL,,,,,191108.00,V,N*4A
$GPRMC,191109.00,V,,,,,,,300415,,,N*7F
$GPVTG,,,,,,,,,N*30
$GPGGA,191109.00,,,,,0,00,99.99,,,,,,*67
$GPGSA,A,1,,,,,,,,,,,,,99.99,99.99,99.99*30
$GPGSV,4,1,13,01,,,44,03,,,46,04,,,42,11,,,44*7C
$GPGSV,4,2,114,,,41,19,,,49,22,,,29,23,,,44*72
$GPGSV,4,3,13,27,,,45,31,,,26,32,,,43,33,,,32*79
$GPGSV,4,4,13,51,,,45*7E
$GPGLL,,,,,191109.00,V,N*4B
$GPRMC,191110.00,V,,,,,,,300415,,,N*77
$GPVTG,,,,,,,,,N*30
$GPGGA,191110.00,,,,,0,00,99.99,,,,,,*6F
$GPGSA,A,1,,,,,,,,,,,,,99.99,99.99,99.99*30
$GPGSV,4,1,13,01,,,41,03,,,39,04,,,40,11,,,43*74
$GPGSV,4,2,13,14,,,35,19,,,43,22,,,28,23,,,34*7D
$GPGSV,4,3,13,27,,,38,31,,,34,32,,,41,33,,,34*74
$GPGSV,4,4,13,51,,,39*75
$GPGLL,,,,,191110.00,V,N*43
$GPRMC,191111.00,V,,,,,,,300415,,,N*76
$GPVTG,,,,,,,,,N*30
$GPGGA,191111.00,,,,,0,00,99.99,,,,,,*6E
$GPGSA,A,1,,,,,,,,,,,,,99.99,99.99,99.99*30
$GPGSV,4,1,13,01,,,38,03,,,41,04,,,36,11,,,38*78
$GPGSV,4,2,13,14,,,33,19,,,45,22,,,28,23,,,38*71
$GPGSV,4,3,13,27,,,44,31,,,37,32,,,37,33,,,29*71
$GPGSV,4,4,13,51,,,39*75
$GPGLL,,,,,191111.00,V,N*42
$GPRMC,191112.00,V,,,,,,,300415,,,N*75
$GPVTG,,,,,,,,,N*30
$GPGGA,191112.00,,,,,0,00,99.99,,,,,,*6D
$GPGSA,A,1,,,,,,,,,,,,,99.99,99.99,99.99*30
$GPGSV,4,1,13,01,,,41,03,,,36,04,,,38,11,,,39*79
$PGSV,4,2,13,14,,,33,19,,,44,22,,,21,23,,,33*72
$GPGSV,4,3,13,27,,,38,31,,,28,32,,,41,33,,,30*7D
$GPGSV,4,4,13,51,,,37*7B
$GPGLL,,,,,191112.00,V,N*41
$GPRMC,191113.00,V,,,,,,,300415,,,N*74
$GPVTG,,,,,,,,,N*30
$GPGGA,191113.00,,,,,0,00,99.99,,,,,,*6C
$GPGSA,A,1,,,,,,,,,,,,,99.99,99.99,99PGSV,4,2,13,14,,,39,19,,,48,22,,,30,23,,,41*71
$GPGSV,4,3,13,27,,,49,31,,,47,32,,,49,33,,,40*7D
$GPGSV,4,4,13,51,,,50*7A
$GPGLL,,,,,191113.00,V,N*40
$GPRMC,191114.00,V,,,,,,,300415,,,N*73
$GPVTG,,,,,,,,,N*30
$GPGGA,191114.00,,,,,0,00,99.99,,,,,,*6B
$GPGSA,A,1,,,,,,,,,,,,,99.99,99.99,99.99*30
$GPGSV,4,1,13,01,,,47,03,,,43,04,,,45,11,,,50*78
$GPGSV,4,2,13,14,,,35,19,,,50,22,,,35,23,,,41*71
$GPGSV,4,3,13,27,,,46,31,,,46,32,,,49,33,,,43*70
$GPGSV,4,4,13,51,,,43*78
$GPGLL,,,,,191114.00,V,N*47
$GPRMC,191115.00,V,,,,,,,300415,,,N*72
$GPVTG,,,,,,,,,N*30
$GPGGA,191115.00,,,,,0,00,99.99,,,,,,*6A
$GPGSA,A,1,,,,,,,,,,,,,99.99,99.99,99.99*30
$GPGSV,3,1,11,01,,,47,03,,,46,04,,,51,11,,,48*74
$GPGSV,32,11,19,,,46,23,,,40,27,,,46,31,,,47*71
$GPGSV,3,3,11,32,,,48,33,,,42,51,,,44*76
$GPGLL,,,,,191115.00,V,N*46
$GPRMC,191116.00,V,,,,,,,300415,,,N*71
$GPVTG,,,,,,,,,N*30
$GPGGA,191116.00,,,,,0,00,99.99,,,,,,*69
$GPGSA,A,1,,,,,,,,,,,,,99.99,99.99,99.99*30
$GPGSV,3,1,12,01,,,41,03,,,41,04,,,41,11,,,47*78
$GPGSV,3,2,12,14,,,30,19,,,40,23,,,38,27,,,38*75
$GPGSV,3,3,12,31,,,42,32,,,41,33,,,30,51,,,39*77
$GPGLL,,,,,191116.00,V,N*45
$GPRMC,191117.00,V,,,,,,,300415,,,N*70
$GPVTG,,,,,,,,,N*30
$GPGGA,191117.00,,,,,0,00,99.99,,,,,,*68
$GPGSA,A,1,,,,,,,,,,3,11,,,42*7D
$GPGSV,3,2,11,19,,,43,23,,,38,27,,,42,31,,,50*79
$GPGSV,3,3,11,32,,,38,33,,,45,51,,,37*72
$GPGLL,,,,,191117.00,V,N*44
$GPRMC,191118.00,V,,,,,,,300415,,,N*7F
$GPVTG,,,,,,,,,N*30
$GPGGA,191118.00,,,,,0,00,99.99,,,,,,*67
$GPGSA,A,1,,,,,,,,,,,,,99.99,99.99,99.99*30
$GPGSV,3,1,11,01,,,44,03,,,44,04,,,49,11,,,46*72
$GPGSV,3,2,11,19,,,47,23,,,38,27,,,43,31,,,45*78
$GPGSV,3,3,11,32,,,47,33,,,40,51,,,43*7C
$GPGLL,,,,,191118.00,V,N*4B
$GPRMC,191119.00,V,,,,,,,300415,,,N*7E
$GPVTG,,,,,,,,,N*30
$GPGGA,191119.00,,,,,0,00,99.99,,,,,,*66
$GPGSA,A,1,,,,,,,,,,,,,99.99,99.99,99.99*30
$GPGSV,3,1,12,01,,,40,03,,,43,04,,,45,11,,,43*7B
$GPGSV,3,2,12,19,,,47,22,,,29,23,,,37,27,,,43*7C
$GPGSV,3,3,12,31,,,41,32,,,43,33,,,34,51,,,42*7E
$GPGLL,,,,,191119.00,V,N*4A
$GPRMC,191120.00,V,,,,,,,300415,,,N*74
$GPVTG,,,,,,,,,N*30
$GPGGA,191120.00,,,,,0,00,99.99,,,,,,*6C
$GPGSA,A,1,,,,,,,,,,,,,99.99,99.99,99.99*30
$GPGSV,3,1,12,01,,,43,03,,,40,04,,,45,11,,,47E
$GPGSV,3,2,12,19,,,46,22,,,35,23,,,39,27,,,46*7B
$GPGSV,3,3,12,31,,,44,32,,,46,33,,,40,51,,,41*7E
$GPGLL,,,,,191120.00,V,N*40
$GPRMC,191121.00,V,,,,,,,300415,,,N*75
$GPVTG,,,,,,,,,N*30
$GPGGA,191121.00,,,,,0,00,99.99,,,,,,*6D
$GPGSA,A,1,,,,,,,,,,,,,99.99,99.99,99.99*30
$GPGSV,4,1,13,01,,,42,03,,,38,04,,,46,11,,,46*75
$GPGSV,4,2,13,14,,,40,19,,,44,22,,,39,23,,,42*79
$GPGSV,4,3,13,27,,,43,31,,,46,32,,,45,33,,,43*79
$GPGSV,4,4,13,51,,,38*74
$GPGLL,,,,,191121$GPRMC,191122.00,V,,,,,,,300415,,,N*76
$GPVTG,,,,,,,,,N*30
$GPGGA,191122.00,,,,,0,00,99.99,,,,,,*6E
$GPGSA,A,1,,,,,,,,,,,,,99.99,99.99,99.99*30
$GPGSV,4,1,13,01,,,47,03,,,36,04,,,50,11,,,50*7E
$GPGSV,4,2,13,14,,,39,19,,,48,22,,,45,23,,,39*7C
$GPGSV,4,3,13,27,,,40,31,,,42,32,,,49,33,,,40*71
$GPGSV,4,4,13,51,,,43*78
$GPGLL,,,,,191122.00,V,N*42
$GPRMC,191123.00,V,,,,,,,300415,,,N*77
$GPVTG,,,,,,,,,N*30
$GPGGA,191123.00,,,,,0,00,99.99,,,,,,*6F
$GPGSA,A,1,,,,,,,,,,,,,99.99,99.99,99.99*30
$GPGSV,4,1,13,01,,,49,03,,,42,04,,,48,11,,,
$GPGSV,4,2,13,14,,,40,19,,,46,22,,,37,23,,,37*77
$GPGSV,4,3,13,27,,,42,31,,,44,32,,,48,33,,,41*75
$GPGSV,4,4,13,51,,,46*7D
$GPGLL,,,,,191123.00,V,N*43
$GPRMC,191124.00,V,,,,,,,300415,,,N*70
$GPVTG,,,,,,,,,N*30
$GPGGA,191124.00,,,,,0,00,99.99,,,,,,*68
$GPGSA,A,1,,,,,,,,,,,,,99.99,99.99,99.99*30
$GPGSV,4,1,13,01,,,46,03,,,44,04,,,49,11,,,48*7B
$GPGSV,4,2,13,14,,,40,19,,,47,22,,,31,23,,,39*7E
$GPGSV,4,3,13,27,,,40,31,,,46,32,,,49,33,,,44*71
$GPGSV,4,4,13,51,,,45*7E
$GPGLL,,,,,191124.00,V,N*44$GPRMC,191125.00,V,,,,,,,300415,,,N*71
$GPVTG,,,,,,,,,N*30
$GPGGA,191125.00,,,,,0,00,99.99,,,,,,*69
$GPGSA,A,1,,,,,,,,,,,,,99.99,99.99,99.99*30
$GPGSV,4,1,13,01,,,46,03,,,45,04,,,50,11,,,44*7E
$GPGSV,4,2,13,14,,,38,19,,,44,22,,,36,23,,,39*75
$GPGSV,4,3,13,27,,,42,31,,,46,32,,,48,33,,,40*76
$GPGSV,4,4,13,51,,,42*79
$GPGLL,,,,,191125.00,V,N*45
$GPRMC,191126.00,V,,,,,,,300415,,,N*72
$GPVTG,,,,,,,,,N*30
$GPGGA,191126.00,,,,,0,00,99.99,,,,,,*6A
$GPGSA,A,1,,,,,,,,,,,,,99.99,99.99
$GPGSV,4,2,13,14,,,39,19,,,45,22,,,37,23,,,37*7A
$GPGSV,4,3,13,27,,,43,31,,,43,1,,,44*7F
$GPGLL,,,,,191126.00,V,N*46
$GPRMC,191126.99,A,2627.95520,S,04906.87793,W,2.306,3.72,300415,,,A*6C
$GPVTG,3.72,T,,M,2.306,N,4.271,K,A*3C
$GPGGA,191126.99,2627.95520,S,04906.87793,W,1,06,1.58,54.7,M,-1.5,M,,*79
$GPGSA,A,3,31,19,27,03,23,11,,,,,,,3.04,1.58,2.60*00
$GPGSV,4,1,13,01,,,45,03,15,257,45,04,,,50,11,44,228,47*72
$GPGSV,4,2,13,14,,,39,19,50,309,46,22,,,39,23,05,316,35*7B
$GPGSV,4,3,13,27,30,345,37,31,34,048,45,32,,,47,33,42,056,39*9
$GPGSV,4,4,13,51,20,285,40*46
$GPGLL,2627.95520,S,04906.87793,W,191126.99,A,A*69
$GPRMC,191128.00,A,2627.95465,S,04906.87733,W,3.278,17.56,300415,,,A*52
$GPVTG,17.56,T,,M,3.278,N,6.072,K,A*05
$GPGGA,191128.00,2627.95465,S,04906.87733,W,1,05,1.58,54.8,M,-1.5,M,,*71
$GPGSA,A,3,31,19,27,03,11,,,,,,,,3.04,1.58,2.60*01
$GPGSV,4,1,13,01,,,43,03,15,257,38,04,,,49,11,44,228,48*79
$GPGSV,4,2,13,14,,,41,19,50,309,43,22,,,45,23,05,316,37*78
$GPGSV,4,3,13,27,30,345,44,31,34,048,41,32,,,47,33,42,056,40*
$GPGSV,4,4,13,51,20,285,45*43
$GPGLL,2627.95465,S,04906.87733,W,191128.00,A,A*6D
$GPRMC,191129.00,A,2627.95415,S,04906.87670,W,2.726,,300415,,,A*76
$GPVTG,,T,,M,2.726,N,5.048,K,A*2B
$GPGGA,191129.00,2627.95415,S,04906.87670,W,1,05,1.58,54.7,M,-1.5,M,,*7E
$GPGSA,A,3,31,19,27,03,11,,,,,,,,3.04,1.58,2.60*01
$GPGSV,4,1,13,01,,,35,03,15,257,45,04,,,45,11,44,228,47*71
$GPGSV,4,2,13,14,,,46,19,50,309,48,22,,,48,23,05,316,37*79
$GPGSV,4,3,13,27,30,345,45,31,34,048,36,32,,,45,33,42,056,35*46
$,191129.00,A,A*6D
$GPRMC,191130.00,A,2627.95357,S,04906.87616,W,2.720,18.66,300415,,,A*5E
$GPVTG,18.66,T,,M,2.720,N,5.038,K,A*0D
$GPGGA,191130.00,2627.95357,S,04906.87616,W,1,05,1.58,54.7,M,-1.5,M,,*77
$GPGSA,A,3,31,19,27,03,11,,,,,,,,3.04,1.58,2.60*01
$GPGSV,4,1,13,01,,,29,03,15,257,47,04,,,46,11,44,228,40*7A
$GPGSV,4,2,13,14,,,47,19,50,309,48,22,,,45,23,05,316,35*77
$GPGSV,4,3,13,27,30,345,47,31,34,048,45,32,,,44,33,42,056,37*43
$GPGSV,4,4,13,51,20,285,43*45
$GPGLL,2627.95357,S,04906.87616,W,191130.00,A,A*64
$GPRMC,191131.00,A,2627.95305,S,04906.87557,W,2.416,,300415,,,A*7F
$GPVTG,,T,,M,2.416,N,4.474,K,A*21
$GPGGA,191131.00,2627.95305,S,04906.87557,W,1,05,1.58,54.7,M,-1.5,M,,*77
$GPGSA,A,3,31,19,27,03,11,,,,,,,,3.04,1.58,2.60*01
$GPGSV,4,1,13,01,,,33,03,15,257,42,04,,,46,11,44,228,42*76
$GPGSV,4,2,13,14,,,43,19,50,309,47,22,,,42,23,05,316,41*78
$GPGSV,4,3,13,27,30,345,45,31,34,048,48,32,,,44,33,42,056,41*4D
$GPGSV,4,4,13,51,20,285,39*48
$GPGLL,2627.95305,S,04906.87557,W,191131.00,A,A*64
$GPRMC,191132.00,A,2627.95261,S,04906.87488,W,2.871,38.37,300415,,,A*50
$GPVTG,38.37,T,,M,2.871,N,5.318,K,A*01
$GPGGA,191132.00,2627.95261,S,04906.87488,W,1,05,1.58,54.5,M,-1.5,M,,*76
$GPGSA,A,3,31,19,27,03,11,,,,,,,,3.04,1.58,2.60*01
$GPGSV,4,1,13,01,,,37,03,15,257,41,04,,,45,11,44,228,40*70
$GPGSV,4,2,13,14,,,43,19,50,309,45,22,,,40,23,05,316,42*7B
$GPGSV,4,3,13,27,30,345,44,31,34,048,45,32,,,39,33,42,056,41*4B8,W,191132.00,A,A*67
$GPRMC,191133.00,A,2627.95221,S,04906.87417,W,2.679,50.30,300415,,,A*5C
$GPVTG,50.30,T,,M,2.679,N,4.962,K,A*08
$GPGGA,191133.00,2627.95221,S,04906.87417,W,1,05,1.58,54.5,M,-1.5,M,,*75
$GPGSA,A,3,31,19,27,03,11,,,,,,,,3.04,1.58,2.60*01
$GPGSV,4,1,13,01,,,35,03,15,257,39,04,,,46,11,44,228,40*7E
$GPGSV,4,2,13,14,,,47,19,50,309,46,22,,,44,23,05,316,42*78
$GPGSV,4,3,13,27,30,345,47,31,34,048,43,32,,,43,33,42,056,40*42
$GPGSV,4,4,13,51,20,285,42*44
$GPGLL,2627.95221,S,04906.87417,W,191133.00,A,A*64
$GPRMC,191134.00,A,2627.95232,S,04906.87312,W,2.814,59.12,300415,,,A*57
$GPVTG,59.12,T,,M,2.814,N,5.212,K,A*09
$GPGGA,191134.00,2627.95232,S,04906.87312,W,1,08,1.39,56.0,M,-1.5,M,,*7F
$GPGSA,A,3,31,19,27,04,32,03,23,11,,,,,2.44,1.39,2.00*01
$GPGSV,4,1,13,01,,,29,03,15,257,43,04,56,211,46,11,44,228,41*4E
$GPGSV,4,2,13,14,,,43,19,50,309,46,22,,,42,23,06,316,41*7A
$GPGSV,4,3,13,27,30,345,43,31,34,048,42,32,48,226,44,33,42,056,40*7A
$GPGSV,4,4,13,51,20,285,47*41
$GPGLL,2627.95232,S,04906.87312,W,191134.00,A,A*63
$GPRMC,191135.00,A,2627.95205,S,04906.87229,W,2.658,63.63,300415,,,A*52
$GPVTG,63.63,T,,M,2.658,N,4.922,K,A*09
$GPGGA,191135.00,2627.95205,S,04906.87229,W,1,08,1.39,56.6,M,-1.5,M,,*75
$GPGSA,A,3,31,19,27,04,32,03,23,11,,,,,2.44,1.39,2.00*01
$GPGSV,4,1,13,01,,,34,03,15,257,44,04,56,211,45,11,44,228,43*44
$GPGSV,4,2,13,14,,,46,19,50,309,46,22,,,38,23,06,316,41*72
$GPGSV,4,3,13,27,30,345,47,31,34,048,40,32,48,226,44,33,42,056,37*7C
$GPGSV,4,4,13,51,20,285,46*40
$GPGLL,2627.95205,S,04906.87229,W,191135.00,A,A*6F
$GPRMC,191136.00,A,2627.95171,S,04906.87157,W,2.512,66.39,300415,,,A*5C
$GPVTG.95171,S,04906.87157,W,1,08,1.42,56.0,M,-1.5,M,,*76
$GPGSA,A,3,31,19,27,04,32,03,23,11,,,,,2.72,1.42,2.32*09
$GPGSV,4,1,13,01,,,30,03,15,257,46,04,56,211,46,11,44,228,41*43
$GPGSV,4,2,13,14,,,48,19,50,309,49,22,,,40,23,06,316,38*72
$GPGSV,4,3,13,27,30,345,44,31,34,048,35,32,48,226,43,33,42,056,38*75
$GPGSV,4,4,13,51,20,285,47*41
$GPGLL,2627.95171,S,04906.87157,W,191136.00,A,A*66
$GPRMC,191137.00,A,2627.95151,S,04906.87087,W,2.531,66.46,300415,,,A*5A
$GPVTG,66.46,T,,M,2.531,N,4.687,K,A*07
$GPGGA,191137.00,2627.95151,S,04906.87087,W,1,08,1.39,55.9,M,-1.5,M,,*7F
$GPGSA,A,3,31,19,27,04,32,03,23,11,,,,,2.44,1.39,2.01*00
$GPGSV,4,1,13,01,,,38,03,15,257,46,04,56,211,42,11,44,228,44*4A
$GPGSV,4,2,13,14,,,48,19,50,309,48,22,,,46,23,06,316,30*7D
$GPGSV,4,3,13,27,30,345,44,31,34,048,41,32,48,226,44,33,42,056,40*7E
$GPGSV,4,4,13,51,20,285,39*48
$GPGLL,2627.95151,S,04906.87087,W,191137.00,A,A*69
$GPRMC,191138.00,A,2627.95125,S,04906.87009,W,2.905,68.44,300415,,,A*57
$GPVTG,68.44,T,,M,2.905,N,5.379,K,A*05
$GPGGA,191138.00,2627.95125,S,04906.87009,W,1,08,1.39,56.0,M,-1.5,M,,*7F
$GPGSA,A,3,31,19,27,04,32,03,23,11,,,,,2.44,1.39,2.01*00
$GPGSV,4,1,13,01,,,30,03,15,257,48,04,56,211,47,11,44,228,45*48
$GPGSV,4,2,13,14,,,47,19,50,309,49,22,,,43,23,06,316,36*70
$GPGSV,4,3,13,27,30,345,48,31,34,048,42,32,48,226,44,33,42,056,40*71
$GPGSV,4,4,13,51,20,285,43*45
$GPGLL,2627.95125,S,04906.87009,W,191138.00,A,A*63
$GPRMC,191139.00,A,2627.95089,S,04906.86936,W,2.810,68.20,300415,,,191139.00,2627.95089,S,04906.86936,W,1,08,1.39,55.9,M,-1.5,M,,*77
$GPGSA,A,3,3127,04,32,03,23,11,,,,,2.44,1.39,2.01*00
$GPGSV,4,1,13,01,,,36,03,15,257,48,04,56,211,47,11,44,228,43*48
$GPGSV,4,2,13,14,,,48,19,50,309,49,22,,,38,23,06,316,35*70
$GPGSV,4,3,13,27,30,345,46,31,34,048,44,32,48,226,45,33,42,056,39*76
$GPGSV,4,4,13,51,20,285,47*41
$GPGLL,2627.95089,S,04906.86936,W,191139.00,A,A*61
$GPRMC,191140.00,A,2627.95057,S,04906.86861,W,2.824,68.85,300415,,,A*54
$GPVTG,68.85,T,,M,2.824,N,5.230,K,A*06
$GPGGA,191140.00,262.95057,S,04906.86861,W,1,08,1.39,55.6,M,-1.5,M,,*76
$GPGSA,A,3,31,19,27,04,32,03,23,11,,,,,2.44,1.39,2.01*00
$GPGSV,4,1,13,01,,,39,03,15,257,48,04,56,211,48,11,44,228,44*4F
$GPGSV,4,2,13,14,,,46,19,50,309,49,22,,,39,23,06,316,41*7C
$GPGSV,4,3,13,27,30,345,46,31,34,048,41,32,48,226,45,33,42,056,35*7F
$GPGSV,4,4,13,51,20,285,41*47
$GPGLL,2627.95057,S,04906.86861,W,191140.00,A,A*6F
$GPRMC,191141.00,A,2627.95034,S,04906.86780,W,2.655,73.01,300415,,,A*5E
$GPVTG,73.01,T,,M,2.655,N,4.917,K,A*07
$GPGGA,191141.00,627.95034,S,04906.86780,W,1,08,1.39,55.6,M,-1.5,M,,*72
$GPGSA,A,3,31,19,27,04,32,03,23,11,,,,,2.44,1.39,2.01*00
$GPGSV,4,1,13,01,,,42,03,15,257,43,04,56,211,48,11,44,228,46*4A
$GPGSV,4,2,13,14,,,43,19,50,309,49,22,,,40,23,06,316,40*76
$GPGSV,4,3,13,27,30,345,45,31,34,048,42,32,48,226,44,33,42,056,41*7D
$GPGSV,4,4,13,51,20,285,41*47
$GPGLL,2627.95034,S,04906.86780,W,191141.00,A,A*6B
$GPRMC,191142.00,A,2627.95019,S,04906.86698,W,2.576,77.29,300415,,,A*56
$GPVTG,77.29,T,,M,2.576,N,4.771,K,A*05
$GPGGA,191142.00,2627.95019,S,04906.86698,W,1,08,1.39,56.3,M,-1.5,M,,*70
$GPGSA,A,3,31,19,27,04,32,03,23,11,,,,,2.44,1.39,2.01*00
$GPGSV,4,1,13,01,,,38,03,15,257,38,04,56,2111,23,06,316,37*77
$GPGSV,4,3,13,27,30,345,46,31,34,048,46,32,48,226,45,33,42,056,39*74
$GPGSV,4,4,13,51,20,285,41*47
$GPGLL,2627.95019,S,04906.86698,W,191142.00,A,A*6F
$GPRMC,191143.00,A,2627.95002,S,04906.86622,W,2.568,77.73,300415,,,A*5C
$GPVTG,77.73,T,,M,2.568,N,4.755,K,A*03
$GPGGA,191143.00,2627.95002,S,04906.86622,W,1,08,1.39,56.4,M,-1.5,M,,*7D
$GP11,,,,,2.44,1.39,2.01*00
$GPGSV,4,1,13,01,,,38,03,15,257,40,04,56,211,48,11,44,228,46*44
$GPGSV,4,2,13,14,,,43,19,50,309,49,22,,,44,23,06,316,31*74
$GPGSV,4,3,13,27,30,345,45,31,34,048,45,32,48,226,44,33,42,056,37*7B
$GPGSV,4,4,13,51,20,285,43*45
$GPGLL,2627.95002,S,04906.86622,W,191143.00,A,A*65
$GPRMC,191144.00,A,2627.94987,S,04906.86543,W,2.532,76.57,300415,,,A*52
$GPVTG,76.57,T,,M,2.532,N,4.689,K,A*0B
$GPGGA,191144.00,2627.94987,S,04906.86543,W,1,08,1.42,56.1,M,-1.5,M,,*72
$GPGSA,,3,31,19,27,04,32,03,23,11,,,,,2.46,1.42,2.01*0E
$GPGSV,4,1,13,01,,,36,03,15,257,35,04,56,211,47,11,44,228,41*40
$GPGSV,4,2,13,14,,,46,19,50,309,44,22,,,46,23,06,316,32*7D
$GPGSV,4,3,13,27,30,345,45,31,34,048,42,32,48,226,45,33,42,056,40*7D
$GPGSV,4,4,13,51,20,285,46*40
$GPGLL,2627.94987,S,04906.86543,W,191144.00,A,A*63
$GPRMC,191145.00,A,2627.94969,S,04906.86466,W,2.486,74.35,300415,,,A*5D
$GPVTG,74.35,T,,M,2.486,N,4.603,K,A*01
$GPGGA,191145.00,2627.94969,S,04906.86466,W,1,08,1.42,55.8,M,-1.5,M,,*7F
$GPGSA,03,15,257,41,04,56,211,45,11,44,228,34*41
$GPGSV,4,2,13,14,,,46,19,50,309,46,22,,,46,23,06,316,38*75
$GPGSV,4,3,13,27,30,345,44,31,34,048,42,32,48,226,40,33,42,056,40*79
$GPGSV,4,4,13,51,20,285,45*43
$GPGLL,2627.94969,S,04906.86466,W,191145.00,A,A*64
$GPRMC,191146.00,A,2627.94953,S,04906.86400,W,2.520,75.61,300415,,,A*5A
$GPVTG,75.61,T,,M,2.520,N,4.668,K,A*01
$GPGGA,191146.00,2627.94953,S,04906.86400,W,1,08,1.42,55.6,M,-1.5,M,,*7B
$GPGSA,A,3,31,19,27,04,32,03,23,11,,,,,2.72,1.42,2.32*09
$GPGSV,4,1,13,01,,,39,03,15,257,41,056,211,47,11,44,228,41*4C
$GPGSV,4,2,13,14,,,48,19,50,309,47,22,,,44,23,06,316,36*76
$GPGSV,4,3,13,27,30,345,41,31,34,048,41,32,48,226,41,33,42,056,36*7F
$GPGSV,4,4,13,51,20,285,40*46
$GPGLL,2627.94953,S,04906.86400,W,191146.00,A,A*6E
$GPRMC,191147.00,A,2627.94938,S,04906.86337,W,2.554,78.67,300415,,,A*5D
$GPVTG,78.67,T,,M,2.554,N,4.730,K,A*05
$GPGGA,191147.00,2627.94938,S,04906.86337,W,1,08,1.39,55.8,M,-1.5,M,,*76
$GPGSA,A,3,31,19,27,04,32,03,23,11,,,,,2.44,1.39,2.01*00
$GPGSV,4,1,13,01,,,363,15,257,37,04,56,211,47,11,44,228,42*41
$GPGSV,4,2,13,14,,,46,19,50,309,48,22,,,44,23,06,316,32*73
$GPGSV,4,3,13,27,30,345,44,31,34,048,37,32,48,226,41,33,42,056,36*7B
$GPGSV,4,4,13,51,20,285,44*42
$GPGLL,2627.94938,S,04906.86337,W,191147.00,A,A*61
$GPRMC,191148.00,A,2627.94920,S,04906.86266,W,2.502,77.23,300415,,,A*52
$GPVTG,77.23,T,,M,2.502,N,4.635,K,A*0D
$GPGGA,191148.00,2627.94920,,27,04,32,03,23,11,,,,,2.72,1.42,2.32*09
$GPGSV,4,1,13,01,,,36,03,15,257,39,04,51,47,11,44,228,42*4F
$GPGSV,4,2,13,14,,,46,19,50,309,48,22,,,44,23,06,316,37*76
$GPGSV,4,3,13,27,30,345,44,31,34,048,42,32,48,226,40,33,42,056,36*78
$GPGSV,4,4,13,51,20,285,44*42
$GPGLL,2627.94920,S,04906.86266,W,191148.00,A,A*62
$GPRMC,191149.00,A,2627.94896,S,04906.86191,W,2.582,73.32,300415,,,A*58
$GPVTG,73.32,T,,M,2.582,N,4.782,K,A*0C
$GPGGA,191149.00,2627.94896,S,04906.86191,W,1,08,1.42,55.6,M,-1.5,M,,*71
$GPGSA,A,3,31,19,27,04,32,03,23,11,,,,,2.72,1.42,2.32*09
$GPGSV,4,1,13,01,,,5,257,42,04,56,211,46,11,44,228,40*4E
$GPGSV,4,2,13,14,,,45,19,50,309,47,22,,,45,23,06,316,37*7B
$GPGSV,4,3,13,27,30,345,44,31,34,048,41,32,48,226,43,33,42,056,35*7B
$GPGSV,4,4,13,51,20,285,44*42
$GPGLL,2627.94896,S,04906.86191,W,191149.00,A,A*64
$GPRMC,191150.00,A,2627.94877,S,04906.86112,W,2.760,82.35,300415,,,A*53
$GPVTG,82.35,T,,M,2.760,N,5.112,K,A*05
$GPGGA,191150.00,2627.94877,S,04906.86112,W,1,08,1.39,55.6,M,-1.5,M,,*71
$GPGSA,A,3,31,19,27,04,32,03,23,11,,,,,2.45,1.39,2.01*01
$GPGSV,4,1,13,01,,,36,037,40,04,56,211,47,11,44,228,47*44
$GPGSV,4,2,13,14,,,45,19,50,309,49,22,,,43,23,06,316,31*75
$GPGSV,4,3,13,27,30,345,47,31,34,048,45,32,48,226,46,33,42,056,38*74
$GPGSV,4,4,13,51,20,285,42*44
$GPGLL,2627.94877,S,04906.86112,W,191150.00,A,A*68
$GPRMC,191151.00,A,2627.94860,S,04906.86035,W,2.478,82.01,300415,,,A*5D
$GPVTG,82.01,T,,M,2.478,N,4.589,K,A*0F
$GPGGA,191151.00,2627.94860,S,04906.86035,W,1,08,1.42,55.6,M,-1.5,M,,*7E
$GPGSA,A,3,31,19,27,04,32,03,23,11,,,,,2.72,1.42,2.32*09
$GPGSV,4,11,47,11,44,228,46*45
$GPGSV,4,2,13,14,,,45,19,50,309,50,22,,,44,23,06,316,40*7C5*71
$GPGSV,4,4,13,51,20,285,44*42
$GPGLL,2627.94860,S,04906.86035,W,191151.00,A,A*6B
$GPRMC,191152.00,A,2627.94845,S,04906.85949,W,2.725,81.83,300415,,,A*5A
$GPVTG,81.83,T,,M,2.725,N,5.047,K,A*0B
$GPGGA,191152.00,2627.94845,S,04906.85949,W,1,08,1.42,55.5,M,-1.5,M,,*78
$GPGSA,A,3,31,19,27,04,32,03,23,11,,,,,2.72,1.42,2.32*09
$GPGSV,4,1,13,01,,,32,03,15,257,36,04,56,211,47,11,44,228,45*43
$GPGSV,4,2,13,14,,,44,19,50,309,49,22,,,39,23,06,316,36*7E
$GPGSV,4,3,13,27,30,345,48,31,34,8,41,32,48,226,45,33,42,056,39*7D
$GPGSV,4,4,13,51,20,285,44*42
$GPGLL,2627.94845,S,04906.85949,W,191152.00,A,A*6E
$GPRMC,191153.00,A,2627.94833,S,04906.85865,W,2.530,81.77,300415,,,A*58
$GPVTG,81.77,T,,M,2.530,N,4.685,K,A*0F
$GPGGA,191153.00,2627.94833,S,04906.85865,W,1,08,1.42,55.3,M,-1.5,M,,*71
$GPGSA,A,3,31,19,27,04,32,03,23,11,,,,,2.72,1.42,2.32*09
$GPGSV,4,1,13,01,,,25,03,15,257,35,04,56,211,46,11,44,228,45*47
$GPGSV,4,2,13,14,,,47,19,50,309,462,,,43,23,06,316,33*7A
$GPGSV,4,3,13,27,30,345,41,31,34,048,39,32,48,226,45,33,42,056,38*7A
$GPGSV,4,4,13,51,20,285,42*44
$GPGLL,2627.94833,S,04906.85865,W,191153.00,A,A*61
$GPRMC,191154.00,A,2627.94816,S,04906.85795,W,2.448,80.36,300415,,,A*52
$GPVTG,80.36,T,,M,2.448,N,4.533,K,A*0B
$GPGGA,191154.00,2627.94816,S,04906.85795,W,1,08,1.39,55.1,M,-1.5,M,,*7F
$GPGSA,A,3,31,19,27,04,32,03,23,11,,,,,2.45,1.39,2.01*01
$GPGSV,4,1,13,01,,,34,03,15,257,41,04,56,211,48,11,44,228,43*4C
$GPGSV,4,2,13,14,,,46,,42,32,48,226,45,33,42,056,39*73
$GPGSV,4,4,13,51,20,285,44*42
$GPGLL,2627.94816,S,04906.85795,W,191154.00,A,A*61
$GPRMC,191155.00,A,2627.94806,S,04906.85743,W,2.450,80.34,300415,,,A*52
$GPVTG,80.34,T,,M,2.450,N,4.537,K,A*04
$GPGGA,191155.00,2627.94806,S,04906.85743,W,1,08,1.43,55.2,M,-1.5,M,,*7A
$GPGSA,A,3,31,19,27,04,32,03,23,11,,,,,2.72,1.43,2.32*08
$GPGSV,4,1,13,01,,,37,03,15,257,41,04,56,211,46,11,44,228,44*46
$GPGSV,4,2,13,14,,,46,19,50,309,45,22,,,42,23,06,316,34*7E
$GPGSV,4,3,13,27,30,345,43,31,34,048,31,,48,226,45,33,42,056,36*7E
$GPGSV,4,4,13,51,20,285,43*45
$GPGLL,2627.94806,S,04906.85743,W,191155.00,A,A*6A
$GPRMC,191156.00,A,2627.94803,S,04906.85674,W,2.472,82.30,300415,,,A*57
$GPVTG,82.30,T,,M,2.472,N,4.579,K,A*08
$GPGGA,191156.00,2627.94803,S,04906.85674,W,1,08,1.39,55.4,M,-1.5,M,,*72
$GPGSA,A,3,31,19,27,04,32,03,23,11,,,,,2.45,1.39,2.01*01
$GPGSV,4,1,13,01,,,37,03,15,257,39,04,56,211,47,11,44,228,45*49
$GPGSV,4,2,13,14,,,43,19,50,309,49,22,,,39,23,06,316,40*78
$GPGSV,4,3,13,27,30,345,45,31,34,9,40,32,48,226,43,33,42,056,33*7C
$GPGSV,4,4,13,51,20,285,45*43
$GPGLL,2627.94803,S,04906.85674,W,191156.00,A,A*69
$GPRMC,191157.00,A,2627.94798,S,04906.85592,W,2.590,83.65,300415,,,A*5C
$GPVTG,83.65,T,,M,2.590,N,4.796,K,A*07
$GPGGA,191157.00,2627.94798,S,04906.85592,W,1,08,1.39,55.6,M,-1.5,M,,*77
$GPGSA,A,3,31,19,27,04,32,03,23,11,,,,,2.45,1.39,2.01*01
$GPGSV,4,1,13,01,,,39,03,15,257,37,04,56,211,47,11,44,228,45*49
$GPGSV,4,2,13,14,,,40,19,50,309,49,22V,4,4,13,51,20,285,45*43
$GPGLL,2627.94798,S,04906.85592,W,191157.00,A,A*6E
$GPRMC,191158.00,A,2627.94783,S,04906.85509,W,2.688,80.79,300415,,,A*5F
$GPVTG,80.79,T,,M,2.688,N,4.979,K,A*0C
$GPGGA,191158.00,2627.94783,S,04906.85509,W,1,08,1.43,55.2,M,-1.5,M,,*79
$GPGSA,A,3,31,19,27,04,32,03,23,11,,,,,2.72,1.43,2.32*08
$GPGSV,4,1,13,01,,,41,03,15,257,40,04,56,211,48,11,44,228,41*4D
$GPGSV,4,2,13,14,,,45,19,50,309,47,22,,,39,23,06,316,41*71
$GPGSV,4,3,13,27,30,345,47,31,34,049,46,32,48,225,43,33,42,056,40*7F
$GPGSV,4,4,13,51,20,285,46*40
$GPGLL,2627.94783,S,04906.85509,W,1958.00,A,A*69
$GPRMC,191159.00,A,2627.94767,S,04906.85432,W,2.453,78.67,300415,,,A*51
$GPVTG,78.67,T,,M,2.453,N,4.542,K,A*04
$GPGGA,191159.00,2627.94767,S,04906.85432,W,1,08,1.39,55.3,M,-1.5,M,,*77
$GPGSA,A,3,31,19,27,04,32,03,23,11,,,,,2.45,1.39,2.01*01
$GPGSV,4,1,13,01,,,41,03,15,257,41,04,56,211,47,11,44,228,43*41
$GPGSV,4,2,13,14,,,43,19,50,309,50,22,,,39,23,06,316,36*71
$GPGSV,4,3,13,27,30,345,44,31,34,049,47,32,48,225,45,33,42,056,39*75
$GPGSV,4,4,13,51,20,285,45*42,W,191159.00,A,A*6B
$GPRMC,191200.00,A,2627.94755,S,04906.85370,W,2.621,78.94,300415,,,A*55
$GPVTG,78.94,T,,M,2.621,N,4.854,K,A*05
$GPGGA,191200.00,2627.94755,S,04906.85370,W,1,08,1.43,55.3,M,-1.5,M,,*75
$GPGSA,A,3,31,19,27,04,32,03,23,11,,,,,2.72,1.43,2.32*08
$GPGSV,4,1,13,01,,,28,03,15,257,38,04,56,211,46,11,44,228,45*47
$GPGSV,4,2,13,14,,,42,19,50,309,50,22,,,42,23,06,316,36*7C
$GPGSV,4,3,13,27,30,345,48,31,34,049,47,32,48,225,46,33,42,056,41*75
$GPGSV,4,4,13,51,20,285,44*42
$GLL,2627.94755,S,04906.85370,W,191200.00,A,A*64
$GPRMC,191201.00,A,2627.94740,S,04906.85286,W,2.433,79.13,300415,,,A*57
$GPVTG,79.13,T,,M,2.433,N,4.505,K,A*03
$GPGGA,191201.00,2627.94740,S,04906.85286,W,1,08,1.43,55.2,M,-1.5,M,,*79
$GPGSA,A,3,31,19,27,04,32,03,23,11,,,,,2.72,1.43,2.32*08
$GPGSV,4,1,13,01,,,27,03,15,257,38,04,56,211,46,11,44,228,46*4B
$GPGSV,4,2,13,14,,,43,19,50,309,51,22,,,39,23,06,316,42*73
$GPGSV,4,3,13,27,30,345,46,31,34,049,43,32,48,225,45,33,42,056,40*7D
$GPGSV,4,4,13,51,20,285,42*44$GPGLL,2627.94740,S,04906.85286,W,191201.00,A,A*69
$GPRMC,191202.00,A,2627.94725,S,04906.85209,W,2.468,79.38,300415,,,A*57
$GPVTG,79.38,T,,M,2.468,N,4.571,K,A*07
$GPGGA,191202.00,2627.94725,S,04906.85209,W,1,08,1.43,55.2,M,-1.5,M,,*7E
$GPGSA,A,3,31,19,27,04,32,03,23,11,,,,,2.72,1.43,2.32*08
$GPGSV,4,1,13,01,,,37,03,15,257,37,04,56,211,45,11,44,228,41*41
$GPGSV,4,2,13,14,,,45,19,50,309,50,22,,,40,23,06,316,44*7C
$GPGSV,4,3,13,27,30,345,45,31,34,049,47,32,48,225,43,33,42,056,43*7F
$GPGSV,4,4,13,51,20,285,43*45
$GPGLL,2627.925,S,04906.85209,W,191202.00,A,A*6E
$GPRMC,191203.00,A,2627.94723,S,04906.85136,W,2.352,88.97,300415,,,A*5A
$GPVTG,88.97,T,,M,2.352,N,4.356,K,A*01
$GPGGA,191203.00,2627.94723,S,04906.85136,W,1,08,1.43,55.2,M,-1.5,M,,*76
$GPGSA,A,3,31,19,27,04,32,03,23,11,,,,,2.72,1.43,2.32*08
$GPGSV,4,1,13,01,,,36,03,15,257,38,04,56,211,45,11,44,228,40*4E
$GPGSV,4,2,13,14,,,43,19,50,309,49,22,,,41,23,06,316,40*77
$GPGSV,4,3,13,27,30,345,47,31,34,049,48,32,48,225,42,33,42,056,41*71
$GPGSV,4,4,13,51,20,285,42*44
$GPGLL,2627.94723,S,0490$GPRMC,191204.00,A,2627.94709,S,04906.85063,W,2.260,80.16,300415,,,A*55
$GPVTG,80.16,T,,M,2.260,N,4.186,K,A*0F
$GPGGA,191204.00,2627.94709,S,04906.85063,W,1,10,0.87,55.4,M,-1.5,M,,*7E
$GPGSA,A,3,31,19,27,04,32,03,22,23,11,14,,,1.81,0.87,1.59*05
$GPGSV,4,1,13,01,,,34,03,15,257,38,04,56,211,48,11,44,228,42*43
$GPGSV,4,2,13,14,43,141,44,19,50,309,47,22,26,116,43,23,06,316,31*7B
$GPGSV,4,3,13,27,30,345,47,31,34,049,44,32,48,225,44,33,42,056,40*7A
$GPGSV,4,4,13,51,205,44*42
$GPGLL,2627.94709,S,04906.85063,W,191204.00,A,A*68
$GPRMC,191205.00,A,2627.94692,S,04906.84995,W,2.509,84.29,300415,,,A*56
$GPVTG,84.29,T,,M,2.509,N,4.646,K,A*04
$GPGGA,191205.00,2627.94692,S,04906.84995,W,1,10,0.89,55.4,M,-1.5,M,,*73
$GPGSA,A,3,31,19,27,04,32,03,22,23,11,14,,,2.16,0.89,1.96*05
$GPGSV,4,1,13,01,,,31,03,15,257,36,04,56,211,47,11,44,228,43*46
$GPGSV,4,2,13,14,43,141,40,19,50,309,47,22,26,116,39,23,06,316,40*74
$GPGSV,4,3,13,27,30,345,50,31,34,049,46,32,48,225,45,33,42,056,41*7E
$GPGSV,4,4,13,51,20,285,47*41
$GL,2627.94692,S,04906.84995,W,191205.00,A,A*6B
$GPRMC,191206.00,A,2627.94684,S,04906.84918,W,2.540,87.03,300415,,,A*51
$GPVTG,87.03,T,,M,2.540,N,4.704,K,A*05
$GPGGA,191206.00,2627.94684,S,04906.84918,W,1,10,0.87,55.4,M,-1.5,M,,*7C
$GPGSA,A,3,31,19,27,04,32,03,22,23,11,14,,,1.81,0.87,1.59*05
$GPGSV,4,1,13,01,,,37,03,15,257,37,04,56,211,47,11,44,228,46*44
$GPGSV,4,2,13,14,43,141,42,19,50,309,47,22,26,116,39,23,06,316,45*73
$GPGSV,4,3,13,27,30,345,47,31,34,9,45,32,48,225,46,33,42,056,40*79
$GPGSV,4,4,13,51,20,285,43*45
$GPGLL,2627.94684,S,04906.84918,W,191206.00,A,A*6A
$GPRMC,191207.00,A,2627.94681,S,04906.84843,W,2.409,84.86,300415,,,A*58
$GPVTG,84.86,T,,M,2.409,N,4.462,K,A*04
$GPGGA,,,*76
$GPGSA,A,3,31,19,27,04,32,03,22,23,11,14,,,1.81,0.87,1.59*05
$GPGSV,4,1,13,01,,,32,03,15,257,34,04,56,211,47,11,44,228,45*41
$GPGSV,4,2,13,14,43,141,39,19,50,309,47,22,26,116,42,23,06,316,44*72
$GPGSV,4,3,13,27,30,345,44,31,34,049,45,32,48,225,45,33,42,056,37*79
$GPGSV,4,4,13,5181,S,04906.84843,W,191207.00,A,A*61
$GPRMC,191208.00,A,2627.94671,S,04906.84770,W,2.582,83.30,300415,,,A*5F
$GPVTG,83.30,T,,M,2.582,N,4.782,K,A*01
$GPGGA,191208.00,2627.94671,S,04906.84770,W,1,10,0.98,55.9,M,-1.5,M,,*7B
$GPGSA,A,3,31,19,27,04,32,03,22,23,11,14,,,2.17,0.98,1.94*06
$GPGSV,4,1,13,01,,,37,03,15,257,43,04,56,211,48,11,44,228,46*48
$GPGSV,4,2,13,14,43,141,40,19,50,309,50,22,26,116,34,23,06,316,48*77
$GPGSV,4,3,13,27,30,345,48,31,34,049,45,32,48,225,47,33,42,056,35*75
$GPGSV,4,4,13,51,20,285,45*43
$GPGLL,27.94671,S,04906.84770,W,191208.00,A,A*6E
$GPRMC,191209.00,A,2627.94662,S,04906.84695,W,2.706,88.26,300415,,,A*54
$GPVTG,88.26,T,,M,2.706,N,5.012,K,A*0C
$GPGGA,191209.00,2627.94662,S,04906.84695,W,1,10,0.87,55.9,M,-1.5,M,,*7C
$GPGSA,A,3,31,19,27,04,32,03,22,23,11,14,,,1.81,0.87,1.59*05
$GPGSV,4,1,13,01,,,38,03,15,257,38,04,56,211,47,11,44,228,46*44
$GPGSV,4,2,13,14,43,141,41,19,50,309,49,22,26,116,41,23,06,316,47*73
$GPGSV,4,3,13,27,30,345,46,31,34,049,46,32,48,225,45,33,42,056,42*7A
$GPGSV,4,4,13,51,20,285,*45
$GPGLL,2627.94662,S,04906.84695,W,191209.00,A,A*67
$GPRMC,191210.00,A,2627.94665,S,04906.84615,W,2.466,88.39,300415,,,A*58
$GPVTG,88.39,T,,M,2.466,N,4.566,K,A*00
$GPGGA,191210.00,2627.94665,S,04906.84615,W,1,10,0.92,55.9,M,-1.5,M,,*7F
$GPGSA,A,3,31,19,27,04,32,03,22,23,11,14,,,2.01,0.92,1.79*08
$GPGSV,4,1,13,01,,,38,03,15,257,33,04,56,211,46,11,44,228,43*4B
$GPGSV,4,2,13,14,43,141,41,19,50,309,48,22,26,116,38,23,06,316,43*78
$GPGSV,4,3,13,27,30,345,48,31,34,049,472,48,225,45,33,42,056,43*74
$GPGSV,4,4,13,51,20,285,42*44
$GPGLL,2627.94665,S,04906.84615,W,191210.00,A,A*60
$GPRMC,191211.00,A,2627.94680,S,04906.84530,W,2.530,91.10,300415,,,A*57
$GPVTG,91.10,T,,M,2.530,N,4.686,K,A*0C
$GPGGA,191211.00,2627.94680,S,04906.84530,W,1,10,0.87,56.6,M,-1.5,M,,*79
$GPGSA,A,3,31,19,27,04,32,03,22,23,11,14,,,1.81,0.87,1.59*05
$GPGSV,4,1,13,01,,,38,03,15,257,37,04,56,211,48,11,44,228,44*46
$GPGSV,4,2,13,14,43,141,39,19,50,309,51,22,26,116,36,23,06,316,49*7B
$GPGSV,4,3,13,270,345,43,31,34,049,47,32,48,225,46,33,42,056,42*7D
$GPGSV,4,4,13,51,20,285,40*46
$GPGLL,2627.94680,S,04906.84530,W,191211.00,A,A*6E
$GPRMC,191212.00,A,2627.94701,S,04906.84454,W,2.472,101.59,300415,,,A*6D
$GPVTG,101.59,T,,M,2.472,N,4.578,K,A*3C
$GPGGA,191212.00,2627.94701,S,04906.84454,W,1,10,0.87,57.2,M,-1.5,M,,*74
$GPGSA,A,3,31,19,27,04,32,03,22,23,11,14,,,1.81,0.87,1.59*05
$GPGSV,4,1,13,01,,,32,03,15,257,42,04,56,211,45,11,44,228,44*43
$GPGSV,4,2,13,14,43,141,44,19,50,309,51,22,26,116,38,23,06,316,50*77
$GPGSV,4,3,13,27,30,345,45,31,34,0,44,32,48,225,46,33,42,056,41*7B
$GPGSV,4,4,13,51,20,285,43*45
$GPGLL,2627.9470$GPRMC,191213.00,A,2627.94708,S,04906.84376,W,2.409,93.88,300415,,,A*58
$GPVTG,93.88,T,,M,2.409,N,4.461,K,A*0F
$GPGGA,191213.00,2627.94708,S,04906.84376,W,1,10,0.87,57.6,M,-1.5,M,,*7F
$GPGSA,A,3,31,19,27,04,32,03,22,23,11,14,,,1.81,0.87,1.59*05
$GPGSV,4,1,13,01,,,37,03,15,257,42,04,56,211,44,11,44,228,45*46
$GPGSV,4,2,13,14,43,141,43,19,50,309,50,22,26,116,39,23,06,316,44*75
$GPGSV,4,3,13,27,30,345,48,31,349,45,32,48,225,45,33,42,056,41*74
$GPGSV,4,4,13,51,20,285,42*44
$GPGLL,2627.947$GPRMC,191214.00,A,2627.94705,S,04906.84301,W,2.561,96.22,300415,,,A*58
$GPVTG,96.22,T,,M,2.561,N,4.743,K,A*06
$GPGGA,191214.00,2627.94705,S,04906.84301,W,1,10,1.06,57.4,M,-1.5,M,,*7F
$GPGSA,A,3,31,19,27,04,32,03,22,23,11,14,,,2.47,1.06,2.23*0A
$GPGSV,4,1,13,01,,,33,03,15,257,35,04,56,211,47,11,44,228,43*47
$GPGSV,4,2,13,14,43,141,45,19,50,309,50,22,26,116,43,23,06,316,44*7E
$GPGSV,4,3,13,27,30,345,49,31,34,049,48,225,41,33,42,056,41*71
$GPGSV,4,4,13,51,20,285,42*44
$GPGLL,2627.94705,S,04906.84301,W,191214.00,A,A*63
$GPRMC,191215.00,A,2627.94713,S,04906.84216,W,2.433,96.42,300415,,,A*59
$GPVTG,96.42,T,,M,2.433,N,4.506,K,A*05
$GPGGA,191215.00,2627.94713,S,04906.84216,W,1,10,1.05,57.6,M,-1.5,M,,*7F
$GPGSA,A,3,31,19,27,04,32,03,22,23,11,14,,,2.11,1.05,1.83*03
$GPGSV,4,1,13,01,,,35,03,15,257,27,04,56,211,46,11,44,228,38*4F
$GPGSV,4,2,13,14,43,141,43,19,50,309,49,22,26,116,44,23,06,316,45*76
$GPGSV,4,3,13,27,30,345,45,31,56,42*7C
$GPGSV,4,4,13,51,20,285,43*45
$GPGLL,2627.94713,S,04906.84216,W,191215.00,A,A*62
$GPRMC,191216.00,A,2627.94731,S,04906.84141,W,2.582,105.84,300415,,,A*61
$GP$GPRMC,191217.00,A,2627.94746,S,04906.84063,W,2.334,99.28,300415,,,A*58
$GPVTG,99.28,T,,M,2.334,N,4.323,K,A*07
$GPGGA,191217.00,2627.94746,S,04906.84063,W,1,10,1.05,58.7,M,-1.5,M,,*73
$GPGSA,A,3,31,19,27,04,32,03,22,23,11,14,,,2.11,1.05,1.83*03
$GPGSV,4,1,13,01,,,38,03,15,257,32,04,56,211,46,11,44,228,44*4D
$GPGSV,4,2,13,14,43,141,44,150,309,48,22,26,116,41,23,06,316,42*72
$GPGSV,4,3,13,27,30,345,46,31,34,049,49,32,48,225,44,33,42,056,42*74
$GPGSV,4,4,13,51,20,285,39*48
$GPGLL,2627.94746,S,04906.84063,W,191217.00,A,A*60
$GPRMC,191218.00,A,2627.94756,S,04906.83981,W,2.623,105.32,300415,,,A*68
$GPVTG,105.32,T,,M,2.623,N,4.858,K,A*3C
$GPGGA,191218.00,2627.94756,S,04906.83981,W,1,10,0.87,58.9,M,-1.5,M,,*7A
$GPGSA,A,3,31,19,27,04,32,03,22,23,11,14,,,1.81,0.87,1.59*05
$GPGSV,4,1,13,01,,,40,03,15,2532,04,56,211,46,11,44,228,45*43
$GPGSV,4,2,13,14,43,141,44,19,50,309,46,22,26,116,44,23,06,316,40*7B
$GPGSV,4,3,13,27,30,345,45,31,34,049,47,32,48,225,45,33,42,056,43*79
$GPGSV,4,4,13,51,20,285,32*43
$GPGLL,2627.94756,S,04906.83981,W,191218.00,A,A*6C
$GPRMC,191219.00,A,2627.94775,S,04906.83895,W,2.809,106.61,300415,,,A*6F
$GPVTG,106.61,T,,M,2.809,N,5.201,K,A*38
$GPGGA,191219.00,2627.94775,S,04906.83895,W,1,10,0.98,58.9,M,-1.5,M,,*70
$GPGSA,A,3,31,19,27,04,32,03,22,23,11,14,,,2.17,0.98,1.94*06
$GPGSV,4,1,13,01,,,43,03,15,25722,26,116,44,23,06,316,39*74
$GPGSV,4,3,13,27,30,345,46,31,34,049,46,32,48,225,46,33,42,056,41*7A
$GPGSV,4,4,13,51,20,285,36*47
$GPGLL,2627.94775,S,04906.83895,W,191219.00,A,A*68
$GPRMC,191220.00,A,2627.94801,S,04906.83814,W,2.689,107.87,300415,,,A*6F
$GPVTG,107.87,T,,M,2.689,N,4.980,K,A*34
$GPGGA,191220.00,2627.94801,S,04906.83814,W,1,10,0.98,59.0,M,-1.5,M,,*77
$GPGSA,A,3,31,19,27,04,32,03,22,23,11,14,,,2.17,0.98,1.94*06
$GPGSV,4,1,13,01,,,44,03,15,257,26,04,56,211,48,11,44,228,46*4F
$GPGSV,4,2,13,14,43,,45,19,50,309,47,22,26,116,44,23,06,316,40*7B
$GPGSV,4,3,13,27,30,345,47,31,34,049,47,32,48,225,45,33,42,056,42*7A
$GPGSV,4,4,13,51,20,285,36*47
$GPGLL,2627.94801,S,04906.83814,W,191220.00,A,A*67
$GPRMC,191221.00,A,2627.94844,S,04906.83746,W,2.762,116.12,300415,,,A*6F
$GPVTG,116.12,T,,M,2.762,N,5.116,K,A*3A
$GPGGA,191221.00,2627.94844,S,04906.83746,W,1,10,0.98,59.3,M,-1.5,M,,*7C
$GPGSA,A,3,31,19,27,04,32,03,22,23,11,14,,,2.17,0.98,1.94*06
$GPGSV,4,1,13,01,,,40,03,15,257,27,04,56,211,42,11,44,228,35*44
$GPGSV,4,2,13,14,43,144,19,50,309,45,22,26,116,41,23,06,316,41*7C
$GPGSV,4,3,13,27,30,345,49,31,34,049,47,32,48,225,40,33,42,056,42*71
$GPGSV,4,4,13,51,20,285,36*47
$GPGLL,2627.94844,S,04906.83746,W,191221.00,A,A*6F
$GPRMC,191222.00,A,2627.94914,S,04906.83693,W,2.794,127.65,300415,,,A*6A
$GPVTG,127.65,T,,M,2.794,N,5.175,K,A*34
$GPGGA,191222.00,2627.94914,S,04906.83693,W,1,10,0.87,59.1,M,-1.5,M,,*7E
$GPGSA,A,3,31,19,27,04,32,03,22,23,11,14,,,1.81,0.87,1.59*05
$GPGSV,4,1,13,01,,,47,03,15,257,3116,43,23,06,316,36*7F
$GPGSV,4,3,13,27,30,345,43,31,34,049,46,32,48,225,47,33,42,056,42*7D
$GPGSV,4,4,13,51,20,285,30*41
$GPGLL,2627.94914,S,04906.83693,W,191222.00,A,A*61
$GPRMC,191223.00,A,2627.94989,S,04906.83671,W,2.844,142.07,300415,,,A*66
$GPVTG,142.07,T,,M,2.844,N,5.268,K,A*3E
$GPGGA,191223.00,2627.94989,S,04906.83671,W,1,10,0.87,59.5,M,-1.5,M,,*73
$GPGSA,A,3,31,19,27,04,32,03,22,23,11,14,,,1.81,0.87,1.59*05
$GPGSV,4,1,13,01,,,44,03,15,257,44,04,56,211,43,11,44,228,46*40
$GPGSV,4,2,13,14,43,141,42,19,50,309,46,22,2616,42,23,06,316,39*75
$GPGSV,4,3,13,27,30,345,41,31,34,049,47,32,48,225,44,33,42,056,42*7D
$GPGSV,4,4,13,51,20,285,37*46
$GPGLL,2627.94989,S,04906.83671,W,191223.00,A,A*68
$GPRMC,191224.00,A,2627.95074,S,04906.83668,W,2.559,145.03,300415,,,A*61
$GPVTG,145.03,T,,M,2.559,N,4.740,K,A*32
$GPGGA,191224.00,2627.95074,S,04906.83668,W,1,10,0.98,59.6,M,-1.5,M,,*7B
$GPGSA,A,3,31,19,27,04,32,03,22,23,11,14,,,2.17,0.98,1.94*06
$GPGSV,4,1,13,01,,,45,03,15,257,37,04,56,211,46,11,44,228,43*45
$GPGSV,4,2,13,14,43,141,309,44,22,26,116,43,23,06,316,32*7E
$GPGSV,4,3,13,27,30,345,38,31,34,049,48,32,48,225,43,33,42,056,42*7B
$GPGSV,4,4,13,51,20,285,39*48
$GPGLL,2627.95074,S,04906.83668,W,191224.00,A,A*6D
$GPRMC,191225.00,A,2627.95158,S,04906.83686,W,2.900,188.48,300415,,,A*61
$GPVTG,188.48,T,,M,2.900,N,5.371,K,A*3B
$GPGGA,191225.00,2627.95158,S,04906.83686,W,1,10,0.87,60.1,M,-1.5,M,,*76
$GPGSA,A,3,31,19,27,04,32,03,22,23,11,14,,,1.81,0.87,1.59*05
$GPGSV,4,1,13,01,,,38,03,,257,25,04,56,211,48,11,44,228,45*44
$GPGSV,4,2,13,14,43,141,42,19,50,309,45,22,26,116,47,23,06,316,28*73
$GPGSV,4,3,13,27,30,345,36,31,34,049,48,32,48,225,45,33,42,056,44*75
$GPGSV,4,4,13,51,20,285,40*46
$GPGLL,2627.951$GPRMC,191226.00,A,2627.95235,S,04906.83722,W,2.754,195.96,300415,,,A*65
$GPVTG,195.96,T,,M,2.754,N,5.101,K,A*3E
$GPGGA,191226.00,2627.95235,S,04906.83722,W,1,10,0.87,60.1,M,-1.5,M,,*72
$GPGSA,A,3,31,19,27,04,32,03,22,23,11,14,,,1.81,0.87,1.59*05
$GPGSV,4,1,13,01,,,38,03,15,2,33,04,56,211,45,11,44,228,44*4F
$GPGSV,4,2,13,14,43,141,44,19,50,309,43,22,26,116,44,23,06,316,33*7A
$GPGSV,4,3,13,27,30,345,40,31,34,049,51,32,48,225,45,33,42,056,42*7A
$GPGSV,4,4,13,51,20,285,45*43
$GPGLL,2627.95235,S,04906.83722,W,191226.00,A,A*67
$GPRMC,191227.00,A,2627.95305,S,04906.83757,W,2.717,196.18,300415,,,A*66
$GPVTG,196.18,T,,M,2.717,N,5.031,K,A*3E
$GPGGA,191227.00,2627.95305,S,04906.83757,W,1,10,1.06,59.7,M,-1.5,M,,*77
$GPGSA,A,3,31,19,27,04,32,03,22,23,11,14,,,2.24,1.06,1.98*0C
$GPGSV,4,1,13,01,,,38,03,15,2575,04,56,211,41,11,44,228,37*49
$GPGSV,4,2,13,14,43,141,45,19,50,309,44,22,26,116,45,23,06,316,34*7A
$GPGSV,4,3,13,27,30,345,40,31,34,049,49,32,48,225,42,33,42,056,45*73
$GPGSV,4,4,13,51,20,285,40*46
$GPGLL,2627.95305,S,04906.83757,W,191227.00,A,A*66
$GPRMC,191228.00,A,2627.95375,S,04906.83781,W,2.638,196.13,300415,,,A*62
$GPVTG,196.13,T,,M,2.638,N,4.886,K,A*3C
$GPGGA,191228.00,2627.95375,S,04906.83781,W,1,10,1.06,59.4,M,-1.5,M,,*77
$GPGSA,A,3,31,19,27,04,32,03,22,23,11,14,,,2.24,1.06,1.98*0C
$GPGSV,4,1,13,01,,,35,03,257,29,04,56,211,43,11,44,228,36*4A
$GPGSV,4,2,13,14,43,141,48,19,50,309,41,22,26,116,45,23,06,316,35*73
$GPGSV,4,3,13,27,30,345,40,31,34,049,50,32,48,27.95375,S,04906.83781,W,191228.00,A,A*65
$GPRMC,191229.00,A,2627.95446,S,04906.83805,W,2.681,194.87,300415,,,A*6A
$GPVTG,194.87,T,,M,2.681,N,4.966,K,A*3E
$GPGGA,191229.00,2627.95446,S,04906.83805,W,1,10,0.87,59.4,M,-1.5,M,,*7A
$GPGSA,A,3,31,19,27,04,32,03,22,23,11,14,,,1.81,0.87,1.59*05
$GPGSV,4,1,13,01,,,33,03,15,234,04,56,211,46,11,44,228,42*46
$GPGSV,4,2,13,14,43,141,46,19,50,309,42,22,26,116,46,23,06,316,28*71
$GPGSV,4,3,13,27,30,345,38,31,34,049,49,32,48,225,43,33,42,056,44*7C
$GPGSV,4,4,13,51,20,285,34*45
$GPGLL,2627.95446,S,04906.83805,W,191229.00,A,A*60
$GPRMC,191230.00,A,2627.95507,S,04906.83805,W,2.635,189.21,300415,,,A*69
$GPVTG,189.21,T,,M,2.635,N,4.881,K,A*39
$GPGGA,191230.00,2627.95507,S,04906.83805,W,1,10,0.90,59.2,M,-1.5,M,,*76
$GPGSA,A,3,31,19,27,04,32,03,22,23,11,14,,,1.84,0.90,1.61*0D
$GPGSV,4,1,14,01,,,32,03,157,36,04,56,211,42,11,44,228,39*4A
$GPGSV,4,2,14,13,,,27,14,43,141,44,19,50,309,43,22,26,116,43*4E
$GPGSV,4,3,14,23,06,316,28,27,30,345,42,31,34,049,49,32,48,225,33*7D
$GPGSV,4,4,14,33,42,056,46,51,20,285,34*75
$GPGLL,2627.95507,S,04906.83805,W,191230.00,A,A*6C
$GPRMC,191231.00,A,2627.95581,S,04906.83802,W,2.508,177.61,300415,,,A*69
$GPVTG,177.61,T,,M,2.508,N,4.644,K,A*36
$GPGGA,191231.00,2627.95581,S,04906.83802,W,1,10,0.89,58.8,M,-1.5,M,,*7D
$GPGSA,A,3,31,19,27,04,32,03,223,11,14,,,2.16,0.89,1.96*05
$GPGSV,4,1,13,01,,,33,03,15,257,36,04,56,211,41,11,44,228,38*4E
$GPGSV,4,2,13,14,43,141,41,19,50,309,45,22,26,116,44,23,06,316,35*7F
$GPGSV,4,3,13,27,30,345,44,31,34,049,48,32,48,225,37,33,42,056,43*72
$GPGSV,4,4,13,51,20,285,30*41
$GPGLL,2627.95581,S,04906.83802,W,191231.00,A,A*64
$GPRMC,191232.00,A,2627.95654,S,04906.83803,W,2.546,176.77,300415,,,A*6C
$GPVTG,1765654,S,04906.83803,W,1,10,0.89,58.2,M,-1.5,M,,*7E
$GPGSA,A,3,31,19,27,04,32,03,22,23,11,14,,,2.16,0.89,1.96*05
$GPGSV,4,1,13,01,,,29,03,15,257,42,04,562,13,14,43,141,42,19,50,309,45,22,26,116,43,23,06,316,36*78
$GPGSV,4,3,13,27,30,345,46,31,34,049,49,32,48,225,40,33,42,056,42*70
$GPGSV,4,4,13,51,20,285,32*43
$GPGLL,2627.95654,S,04906.83803,W,191232.00,A,A*6D
$GPRMC,191233.00,A,2627.95721,S,04906.83796,W,2.558,177.12,300415,,,A*60
$GPVTG,177.12,T,,M,2.558,N,4.738,K,A*3D
$GPGGA,191233.00,2627.95721,S,04906.83796,W,1,10,0.87,58.4,M,-1.5,M,,*77
$GPGSA,A,3,31,19,27,04,32,03,22,23,11,14,,,1.81,0.87,1.59*05
$GPGSV,4,1,13,01,,,35,03,15,2535,04,56,211,46,11,44,228,37*43
$GPGSV,4,2,13,14,43,141,45,19,50,309,44,22,26,116,48,23,06,316,32*71
$GPGSV,4,3,13,27,30,345,40,31,34,049,42,32,48,225,41,33,42,056,45*7B
$GPGSV,4,4,13,51,20,285,*42
$GPGLL,2627.95721,S,04906.83796,W,191233.00,A,A*6C
$GPRMC,191234.00,A,2627.95785,S,04906.83787,W,2.394,169.72,300415,,,A*66
$GPVTG,169.72,T,,M,2.394,N,4.433,K,A*3A
$GPGGA,191234.00,2627.95785,S,04906.83787,W,1,10,0.87,58.5,M,-1.5,M,,*7F
$GPGSA,A,3,31,19,27,04,303,22,23,11,14,,,1.81,0.87,1.59*05
$GPGSV,4,1,13,01,,,35,03,15,257,26,04,56,211,41,11,44,228,41*47
$GPGSV,4,2,13,14,43,141,45,19,50,309,45,22,26,116,45,23,06,316,32*7D
$GPGSV,4,3,13,27,30,345,41,31,34,049,52,32,48,225,42,33,42,056,46*7B
$GPGSV,4,4,13,51,20,285,35*44
$GPGLL,2627.95785,S,04906.83787,W,191234.00,A,A*65
$GPRMC,191235.00,A,2627.95851,S,04906.83777,W,2.485,170.70,300415,,,A*63
$GPVTG,170.70,T,,M,2.485,N,4.603,K,A*36
$GPGGA,191235.00,2627.95851,S,04906.83777,W,1,10,0.87,58.3,M,-1.5,M,,*71
$GPGSA,3,31,19,27,04,32,03,22,23,11,14,,,1.81,0.87,1.59*05
$GPGSV,4,1,13,01,,,32,03,15,257,34,04,56,211,45,11,44,228,41*47
$GPGSV,4,2,13,14,43,141,47,19,50,309,45,22,26,116,47,23,06,316,32*7D
$GPGSV,4,3,13,27,30,345,41,31,34,049,47,32,48,225,41,33,42,056,46*7C
$GPGSV,4,4,13,51,20,285,27*47
$GPGLL,2627.95851,S,04906.83777,W,191235.00,A,A*6D
$GPRMC,191236.00,A,2627.95916,S,04906.83766,W,2.156,170.85,300415,,,A*63
$GPVTG,170.85,T,,M,2.156,N,3.992,K,A*37
$GPGGA,191236.00,2627.95916,S,04906.83766,W,1,10,0.87,58.0,M,-1.5,M,,*73
$GPGSA,A,3,31,19,27,04,303,22,23,11,14,,,1.81,0.87,1.59*05
$GPGSV,4,1,13,01,,,38,03,15,257,34,04,56,211,41,11,44,228,27*49
$GPGSV,4,2,13,14,43,141,47,19,50,309,43,22,26,116,48,23,06,316,26*71
$GPGSV,4,3,13,27,30,345,38,31,34,049,51,32,48,225,42,33,42,056,42*72
$GPGSV,4,4,13,51,20,285,30*41
$GPGLL,2627.95916,S,04906.83766,W,191236.00,A,A*6C
$GPRMC,191237.00,A,2627.95974,S,04906.83752,W,2.269,170.60,300415,,,A*65
$GPVTG,170.60,T,,M,2.269,N,4.202,K,A*36
$GPGGA,191237.00,2627.95974,,04906.83752,W,1,10,0.90,57.8,M,-1.5,M,,*70
$GPGSA,A,3,31,19,27,04,32,03,22,23,11,14,,,1.84,0.90,1.61*0D
$GPGSV,4,1,13,01,,,35,03,15,257,30,04,56,211,43,11,44,228,41*42
$GPGSV,4,2,13,14,43,141,46,19,50,309,40,22,26,116,47,23,06,316,27*7D
$GPGSV,4,3,13,27,30,345,37,31,34,049,51,32,48,225,43,33,42,056,47*79
$GPGSV,4,4,13,51,20,285,29*49
$GPGLL,2627.95974,S,04906.$GPRMC,191238.00,A,2627.96037,S,04906.83729,W,2.425,169.42,300415,,,A*6D
$GPVTG,169.42,T,,M,2.425,N,4.491,K,A*3C
$GPGGA,191238.00,2627.96037,S,04906.83729,W,1,10,0.87,58.2,M,-1.5,M,,*7D
$GPGS31,19,27,04,32,03,22,23,11,14,,,1.81,0.87,1.59*05
$GPGSV,4,1,13,01,,,30,03,15,257,31,04,56,211,40,11,44,228,41*45
$GPGSV,4,2,13,14,43,141,45,19,50,309,45,22,26,116,44,23,06,316,26*79
$GPGSV,4,3,13,27,30,345,32,31,34,049,53,32,48,225,43,33,42,056,45*7C
$GPGSV,4,4,13,51,20,285,29*49
$GPGLL,2627.96037,S,04906.83729,W,191238.00,A,A*60
$GPRMC,191239.00,A,2627.96104,S,04906.83713,W,2.246,168.90,300415,,,A*69
$GPVTG,168.90,T,,M,2.246,N,4.160,K,A*3A
$GPGGA,191239.00,296104,S,04906.83713,W,1,10,0.87,58.9,M,-1.5,M,,*7F
$GPGSA,A,3,31,19,27,04,32,03,22,23,11,14,,,1.81,0.87,1.59*05
$GPGSV,4,1,13,01,,,32,03,15,256,33,04,56,211,46,11,44,228,41*42
$GPGSV,4,2,13,14,43,141,42,19,50,309,45,22,26,116,43,23,06,316,32*7C
$GPGSV,4,3,13,27,30,345,45,31,34,049,50,32,48,225,42,33,42,056,41*7A
$GPGSV,4,4,13,51,20,285,33*42
$GPGLL,2627.96104,S,04906.83713,W,191239.00,A,A*69
$GPRMC,191240.00,A,2627.96163,S,04906.83688,W,2.388,168.57,300415,,,A*6D
$GPVTG,168.57,T,,M,2.388,N,4.422,K,A*31
$GPGGA,191288,W,1,10,0.98,59.2,M,-1.5,M,,*77
$GPGSA,A,3,31,19,27,04,32,03,22,23,11,14,,,2.18,0.98,1.94*09
$GPGSV,4,1,13,01,,,36,03,15,256,40,04,57,211,46,11,44,228,38*4D
$GPGSV,4,2,13,14,43,141,47,19,50,309,43,22,26,116,45,23,06,316,32*79
$GPGSV,4,3,13,27,30,345,47,31,34,049,48,32,48,225,42,33,42,056,46*76
$GPGSV,4,4,13,51,20,285,28*48
$GPGLL,2627.96163,S,04906.83688,W,191240.00,A,A*65
$GPRMC,191241.00,A,2627.96234,S,04906.83689,W,2.597,169.28,300415,,,A*6D
$GPVTG,96234,S,04906.83689,W,1,10,0.87,58.4,M,-1.5,M,,*7F
$GPGSA,A,3,31,19,27,04,32,03,3,11,14,,,1.81,0.87,1.59*05
$GPGSV,4,1,13,01,,,38,03,15,256,42,04,57,211,46,11,44,228,44*4A
$GPGSV,4,2,13,14,43,141,45,19,50,309,43,22,26,116,45,23,06,316,27*7F
$GPGSV,4,3,13,27,30,345,43,31,34,049,49,32,48,225,39,33,42,056,44*7D
$GPGSV,4,4,13,51,20,285,29*49
$GPGLL,2627.96234,S,04906.83689,W,191241.00,A,A*64
$GPRMC,191242.00,A,2627.96312,S,04906.83687,W,2.746,182.67,300415,,,A*65
$GPVTG,182.67,T,,M,2.746,N,5.086,K,A*3B
$GPGGA,191242.00,2627.96312,S04906.83687,W,1,10,0.87,58.8,M,-1.5,M,,*7B
$GPGSA,A,3,31,19,27,04,32,03,22,23,11,14,,,1.81,0.87,1.59*05
$GPGSV,4,1,13,01,,,37,03,15,256,36,04,57,211,43,11,44,228,40*47
$GPGSV,4,2,13,14,43,141,46,19,50,309,41,22,26,116,46,23,06,316,27*7D
$GPGSV,4,3,13,27,30,345,30,31,34,049,49,32,48,225,39,33,42,056,45*78
$GPGSV,4,4,13,51,20,285,*42
$GPGLL,2627.96312,S,04906.83687,W,191242.00,A,A*6C
$GPRMC,191243.00,A,2627.96390,S,04906.83703,W,2.696,183.08,300415,,,A*67
$GPVTG,183.08,T,,M,2.696,N,4.993,K,A*33
$GPGGA,191243.00,2627.96390,S,4906.83703,W,1,10,0.87,58.9,M,-1.5,M,,*7C
$GPGSA,A,3,31,19,27,04,32,03,22,23,11,14,,,1.81,0.87,1.59*05
$GPGSV,4,1,13,01,,,32,03,15,256,37,04,57,211,44,11,44,228,46*42
$GPGSV,4,2,13,14,43,141,45,19,50,309,44,22,26,116,47,23,06,316,25*78
$GPGSV,4,3,13,27,30,345,30,31,34,049,48,32,48,225,44,33,42,056,43*75
$GPGSV,4,4,13,51,20,285,*42
$GPGLL,2627.96390,S,04906.83703,W,191243.00,A,A*6A
$GPRMC,191244.00,A,2627.96457,S,04906.83711,W,2.507,182.91,300415,,,A*65
$GPVTG,182.91,T,,M,2.507,N,4.643,K,A*3B
$GPGGA,19124.00,2627.96457,S,04906.83711,W,1,10,1.06,58.7,M,-1.5,M,,*72
$GPGSA,A,3,31,19,27,04,32,03,22,23,11,14,,,2.24,1.06,1.98*0C
$GPGSV,4,1,13,01,,,45,03,15,256,43,04,57,211,43,11,44,228,44*44
$GPGSV,4,2,13,14,43,141,44,19,50,309,44,22,26,116,45,23,06,316,32*7D
$GPGSV,4,3,13,27,30,345,41,31,34,049,42,32,48,225,45,33,42,056,40*7B
$GPGSV,4,4,13,51,20,285,40*46
$GPGLL,2627.96457,S,04906.83711,W,191244.00,A,A*62
$GPRMC,191245.00,A,2627.96530,S,04906.83732,W,2.396,182.99,300415,,,A*63
$GPVTG,182.99,T,,M,2.396,N,4.437,K,A*3C
$GPGGA,191245.00,2627.96530,S,04906.83732,W,1,10,0.87,58.6,M,-1.5,M,,*7B
$GPGSA,A,3,31,19,27,04,32,03,22,23,11,14,,,1.81,0.87,1.59*05
$GPGSV,4,1,13,01,,,44,03,15,256,39,04,57,211,42,11,44,228,47*4A
$GPGSV,4,2,13,14,43,141,41,19,50,309,44,22,26,116,38,23,06,316,27*76
$GPGSV,4,3,13,27,30,345,39,31,34,049,32,32,48,225,43,33,42,056,34*76
$GPGSV,4,4,13,51,20,285,45*43
$GPGLL,2627.96530,S,04906.83732,W,191245.00,A,A*62
$GPRMC,191246.00,A,2627.96609,S,04906.83723,W,2.594,183.15,300415,,,A*68
$GPVTG,183.15,T,,M,2.594,N,4.804,K,A*31
$GPGGA,191246.00,2627.96609,S,04906.83723,W,1,10,0.98,59.1,M,-1.5,M,,*79
$GPGSA,A,3,31,19,27,04,32,03,22,23,11,14,,,2.18,0.98,1.94*09
$GPGSV,4,1,13,01,29,218,45,03,15,256,37,04,57,211,47,11,44,228,47*70
$GPGSV,4,2,13,14,43,141,47,19,50,309,45,22,26,116,51,23,06,316,26*7F
$GPGSV,4,3,13,27,30,345,33,31,34,049,45,32,48,225,47,33,42,056,41*7A
$GPGSV,4,4,13,51,20,285,40*46
$GPGLL,2627.96609,S,04906.83723,W,191246.00,A,A*68
$GPRMC,191247.00,A,2627.96684,S,04906.83731,W,2.694,188.85,300415,,,A*6E
$GPVTG,188.85,T,,M,2.694,N,4.989,K,A*34
$GPGGA,191247.00,2627.96684,S,04906.83731,W,1,10,0.98,59.3,M,-1.5,M,,*7C
$GPGSV,4,1,13,01,29,218,43,03,15,256,43,04,57,211,45,11,45,229,47*77
$GPGSV,4,2,13,14,43,141,46,19,50,309,40,22,26,116,46,23,06,316,26*7D
$GPGSV,4,3,13,27,30,345,36,31,34,049,49,32,48,225,48,33,42,056,42*7F
$GPGSV,4,4,13,51,20,285,34*45
$GPGLL,2627.96684,S,04906.83731,W,191247.00,A,A*6F
$GPRMC,191248.00,A,2627.96752,S,04906.83754,W,2.615,187.06,300415,,,A*65
$GPVTG,187.06,T,,M,2.615,N,4.843,K,A*3E
$GPGGA,191248.00,2627.96752,S,04906.83754,W,1,10,0.87,58.6,M,-1.5,M,,*70
$GPGSA,A,3,31,19,27,04,32,03,22,23,11,14,,,1.81,0.87,1.59*05
$GPGSV,4,1,13,01,29,218,41,03,15,256,44,04,57,211,48,11,45,229,46*7E
$GPGSV,4,2,13,14,43,141,48,19,50,309,40,22,26,116,45,23,06,316,27*71
$GPGSV,4,3,13,27,30,345,33,31,34,049,49,32,48,225,47,33,42,056,43*74
$GPGSV,4,4,13,51,20,285,34*45
$GPGLL,2627.96752,S,04906.83754,W,191248.00,A,A*69
$GPRMC,191249.00,A,2627.96819,S,04906.83760,W,2.732,184.89,300415,,,A*63
$GPVTG,184.89,T,,M,2.732,N,5.059,K,A*3C
$GPGGA,191249.00,2627.96819,S,04906.83760,W,1,10,0.89,58.3,M,-1.5,M,,*7D
$GPGSA,A,3,31,19,27,04,32,03,22,23,11,14,,,2.16,0.89,1.96*05
$GPGSV,4,1,13,01,29,218,39,03,15,256,34,04,57,211,45,11,45,229,47*7A
$GPGSV,4,2,13,14,43,141,46,19,50,309,43,22,26,116,45,23,06,316,32*78
$GPGSV,4,3,13,27,30,345,33,31,34,049,47,32,48,225,45,33,42,056,42*79
$GPGSV,4,4,13,51,20,285,41*47
$GPGLL,2627.96819,S,04906.83760,W,191249.00,A,A*6F
$GPRMC,191250.00,A,2627.96896,S,04906.83754,W,2.625,184.42,300415,,,A*6B
$00,2627.96896,S,04906.83754,W,1,09,0.98,58.4,M,-1.5,M,,*7A
$GPGSA,A,3,31,19,27,04,32,22,23,11,14,,,,2.18,0.98,1.94*0A
$GPGSV,4,1,13,01,29,218,28,03,15,256,,04,57,211,42,11,45,229,42*7F
$GPGSV,4,2,13,14,42,141,44,19,50,309,35,22,26,116,45,23,06,316,26*7F
$GPGSV,4,3,13,27,30,345,36,31,34,049,48,32,48,225,41,33,42,056,40*75
$GPGSV,4,4,13,51,20,285,34*45
$GPGLL,2627.96896,S,04906.83754,W,191250.00,A,A*67
$GPRMC,191251.00,A,2627.96973,S,04906.83759,W,2.901,187.81,300415,,,A*68
$GPVTG,187.81,T,,M,2.901,N,5.372,K,A*33
$GPGGA,191251.00,2627.96973,S,04906.83759,W,1,09,0.98,58.7,M,-1.5,M,,*7F
$GPGSA,A,3,31,19,27,04,32,22,23,11,14,,,,2.18,0.98,1.94*0A
$GPGSV,4,1,13,01,29,218,36,03,15,256,,04,57,211,46,11,45,229,43*75
$GPGSV,4,2,13,14,42,141,45,19,50,309,43,22,26,116,44,23,06,316,26*7E
$GPGSV,4,3,13,27,30,345,38,31,34,049,48,32,48,225,47,33,42,056,39*73
$GPGSV,4,4,13,51,20,285,38*49
$GPGLL,2627.96973,S,04906.83759,W,191251.00,A,A*61
$GPRMC,191252.00,A,2627.97053,S,04906.83775,W,2.672,191.17,300415,,,A*6C
$GPVTG,191.17,T,,M,2.672,N,4.949,K,A*33
$GPGGA,191252.00,2627.97053,S,04906.83775,W,1,09,0.98,58.9,M,-1.5,M,,*76
$GPGSA,A,3,31,19,27,04,32,22,23,11,14,,,,2.18,0.98,1.94*0A
$GPGSV,4,1,13,01,29,218,21,03,15,256,,04,57,211,45,11,45,229,44*77
$GPGSV,4,2,13,14,42,141,45,19,50,309,35,22,26,116,44,23,06,316,25*7C
$GPGSV,4,3,13,27,30,345,33,31,34,049,45,32,48,225,44,33,42,056,41*79
$GPGSV,4,4,13,51,20,,34*45
