$GPRMC,,V,,,,,,,,,,N*53
$GPVTG,,,,,,,,,N*30
$GPGGA,,,,,,0,00,99,,,,,99.99,99.99,99.99*30
$GPGSV,1,1,00*79
$GPGLL,,,,,,V,N*64
$GPTXT,01,01,02,ANTSTATUS=INIT*25
$GPRMC,,V,,,,,,,,,,N*53
$GPVTG,,,,,,,,,N*30
$GPGGA,,,,,,0,00,99.99,,,,,,*48
$GPGSA,A,1,,,,,,,,,,,,,99.99,99.99,99.99*30
$GPGSV,1,1,00*79
$GPGLL,,,,,,V,N*64
$GPTXT,01,01,02,ANTSTATUS=OK*3B
$GPRMC,,V,,,,,,,,,,N*53
$GPVTG,,,,,,,,,N*30
$GPGGA,,,,,,0,00,99.99,,,,,,*48
$GPGSA,A,1,,,,,,,,,,,,,99.99,99.99,99.99*30
$GPGSV,1,1,00*79
$GPGLL,,,,,,V,N*64
$GPRMC,,V,,,,,,,,,,N*53
$GPVTG,,,,,,,,,N*30
$GPGGA,,,,,,0,00,99.99,,,,,,*48
$GPGSA,A,1,,,,,,,,,,,,,99.99,99.99,99.99*30
$GPGSV,1,1,02,31,,,46,33,,,40*7F
$GPGLL,,,,,,V,N*64
$GPRMC,,V,,,,,,,,,,N*53
$GPVTG,,,,,,,,,N*30
$GPGGA,,,,,,0,00,99.99,,,,,,*48
$GPGSA,A,1,,,,,,,,,,,,,99.99,99GLL,,,,,,V,N*64
$GPRMC,,V,,,,,,,,,,N*53
$GPVTG,,,,,,,,,N*30
$GPGGA,,,,,,0,00,99.99,,,,,,*48
$GPGSA,A,1,,,,,,,,,,,,,99.99,99.99,99.99*30
$GPGSV,2,1,05,14,,,40,22,,,40,27,,,35,31,,,46*79
$GPGSV,2,2,05,33,,,40*78
$GPGLL,,,,,,V,N*64
$GPRMC,,V,,,,,,,,,,N*53
$GPVTG,,,,,,,,,N*30
$GPGGA,,,,,,0,00,99.99,,,,,,*48
$GPGSA,A,1,,,,,,,,,,,,,99.99,99.99,99.99*30
$GPGSV,2,1,05,14,,,40,22,,,40,27,,,35,31,,,46*79
$GPGSV,2,2,05,33,,,40*78
$GPGLL,,,,,,V,N*64
$GPRMC,,V,,,,,,,,,,N*53
$GPVTG,,,,,,,,,N*30
$GPGGA,,,,,,0,00,99.99,,,,,,*48
$GPGSA,A,1,,,,,,,,,,,,,99.99,99.99,99.99*30
$GPGSV,2,1,05,14,,,40,22,,,40,27,,,35,31,,,47*78
$GPGSV,2,2,05,33,,,40*78
$GPGLL,,,,,,V,N*64
$GPRMC,,V,,,,,,,,,,N*53
$GPVTG,,,,,,,,,N*30
$GPGGA,,,,,,0,00,99.99,,,,,,*48
$GPGSA,A,1,,,,,,,,,,,,,99.99,99.99,99.99*30
$GPGSV,2,1,05,14,,,40,22,,,41,27,,,35,31,,,46*78
$GPGSV,2,2,05,33,,,40*78
$GPGLL,,,,,,V,N*64
$GPRMC,,V,,,,,,,,,,N*53
$GPVTG,,,,,,,,,N*30
$GPGGA,,,,,,0,00,99.99,,,,,,*48
$GPGSA,A,1,,,,,,,,,,,,,99.99,99.99,99.99*30
$GPGSV,2,1,06,11,,,32,14,,,40,22,,,40,27,,,35*7B
$GPGSV,2,2,06,31,,,46,33,,,40*7B
$GPGLL,,,,,,V,N*64$GPRMC,,V,,,,,,,,,,N*53
$GPVTG,,,,,,,,,N*30
$GPGGA,,,,,,0,00,99.99,,,,,,*48
$GPGSA,A,1,,,,,,,,,,,,,99.99,99.99,99.99*30
$GPGSV,2,1,06,11,,,31,14,,,40,22,,,40,27,,,35*78
$GPGSV,2,2,06,31,,,46,33,,,40*7B
$GPGLL,,,,,,V,N*64
$GPRMC,183322.52,V,,,,,,,290415,,,N*78
$GPVTG,,,,,,,,,N*30
$GPGGA,183322.52,,,,,0,00,99.99,,,,,,*68
$GPGSA,A,1,,,,,,,,,,,,,99.99,99.99,99.99*30
$GPGSV,2,1,06,11,,,30,14,,,40,22,,,41,27,,,35*78
$GPGSV,2,2,06,31,,,46,33,,,40*7B
$GPGLL,,,,,183322.52,V,N*44
$GPRMC,183323.00,V,,,,,,,290415,,,N*7E
$GPVTG,,,,,,,,,N*30
$GPGGA,183323.00,,,,,0,00,99.99,,,,,,*6E
$GPGSA,A,1,,,,,,,,,,,,,99.99,99.99,99.99*30
$GPGSV,2,1,06,11,,,29,14,,,40,22,,,41,27,,,36*73
$GPGSV,2,2,06,31,,,46,33,,,40*7B
$GPGLL,,,,,183323.00,V,N*42
$GPRMC,183324.00,V,,,,,,,290415,,,N*79
$GPVTG,,,,,,,,,N*30
$GPGGA,183324.00,,,,,0,00,99.99,,,,,,*69
$GPGSA,A,1,,,,,,,,,,,,,99.99,99.99,99.99*30
$GPGSV,2,1,06,11,,,28,14,,,40,22,,,41,27,,,35*71
$GPGSV,2,2,06,31,,,46,33,,,40*7B
$GPGLL,,,,,183324.00,V,N*45
$GPRMC,183325.00,V,,,,,,,290415,,,N*78
$GPVTG,,,,,,,,,N*30
$GP,A,1,,,,,,,,,,,,,99.99,99.99,99.99*30
$GPGSV,2,1,06,11,,,27,14,,,40,22,,,41,27,,,35*7E
$GPGSV,2,2,06,31,,,46,33,,,40*7B
$GPGLL,,,,,183325.00,V,N*44
$GPRMC,183326.00,V,,,,,,,290415,,,N*7B
$GPVTG,,,,,,,,,N*30
$GPGGA,183326.00,,,,,0,00,99.99,,,,,,*6B
$GPGSA,A,1,,,,,,,,,,,,,99.99,99.99,99.99*30
$GPGSV,2,1,06,11,,,26,14,,,40,22,,,41,27,,,34*7E
$GPGSV,2,2,06,31,,,46,33,,,40*7B
$GPGLL,,,,,183326.00,V,N*47
$GPRMC,183327.00,V,,,,,,,290415,,,N*7A
$GPVTG,,,,,,,,,N*30
$GPGGA,183327.00,,,,,0,00,99.99,,,,,,*6A
$GPGSA,A,1,,,,,,,,,,,,,99.99,99.99,99.99*30
$GPGSV,2,1,06,11,,,25,14,,,41,22,,,41,27,,,35*7D
$GPGSV,2,2,06,31,,,46,33,,,40*7B
$GPGLL,,,,,183327.00,V,N*46
$GPRMC,183328.00,V,,,,,,,290415,,,N*75
$GPVTG,,,,,,,,,N*30
$GPGGA,183328.00,,,,,0,00,99.99,,,,,,*65
$GPGSA,A,1,,,,,,,,,,,,,99.99,99.99,99.99*30
$GPGSV,2,1,06,11,,,25,14,,,41,22,,,41,27,,,35*7D
$GPGSV,2,2,06,31,,,47,33,,,40*7A
$GPGLL,,,,,183328.00,V,N*49
$GPRMC,183329.00,V,,,,,,,290415,,,N*74
$GPVTG,,,,,,,,,N*30
$GPGGA,183329.00,,,,,0,00,99.99,,,,,,*64
$GPGSA,A,1,,,,,,,,,,,,,99.99,99.99,99.99*30
$GPGSV,2,1,06,11,,,25,14,,,41,22,,,40,27,,,35*7C
$GPGSV,2,2,06,31,,,47,3329.00,V,N*48
$GPRMC,183330.00,V,,,,,,,290415,,,N*7C
$GPVTG,,,,,,,,,N*30
$GPGGA,183330.00,,,,,0,00,99.99,,,,,,*6C
$GPGSA,A,1,,,,,,,,,,,,,99.99,99.99,99.99*30
$GPGSV,2,1,06,11,,,24,14,,,41,22,,,40,27,,,35*7D
$GPGSV,2,2,0$GPRMC,183331.00,V,,,,,,,290415,,,N*7D
$GPVTG,,,,,,,,,N*30
$GPGGA,183331.00,,,,,0,00,99.99,,,,,,*6D
$GPGSA,A,1,,,,,,,,,,,,,99.99,99.99,99.99*30
$GPGSV,2,1,06,11,,,24,14,,,40,22,,,41,27,,,34*7C
$GPGSV,2,2,06,31,,,47,33,,,40*7A
$GPGLL,,,,,183331.00,V,N*41
$GPRMC,183332.00,V,,,,,,,290415,,,N*7E
$GPVTG,,,,,,,,,N*30
$GPGGA,183332.00,,,,,0,00,99.99,,,,,,*6E
$GPGSA,A,1,,,,,,,,,,,,,99.99,99.99,99.99*30
$GPGSV,2,1,06,11,,,24,14,,,40,22,,,40,27,,,34*7D
$GPGSV,2,2,06,31,,,47,33,,,40*7A
$GPGLL,,,,,183332.00,V,N*42
$GPRMC,183333.01,V,,,,,,,290415,,,N*7E
$GPVTG,,,,,,,,,N*30
$GPGGA,183333.01,,,,,0,03,7.28,,,,,,*50
$GPGSA,A,1,31,22,14,,,,,,,,,,7.35,7.28,1.00*0A
$GPGSV,2,1,06,11,,,23,14,61,128,40,22,37,133,40,27,,,35*72
$GPGSV,2,2,06,31,20,033,47,33,42,056,40*7D
$GPGLL,,,,,183333.01,V,N*42
$GPRMC,183334.00,V,,,,,,,290415,,,N*78
$GPVTG,,,,,,,,,N*30
$GPGGA,183334.00,,,,,0,03,7.28,,,,,,*56
$GPGSA,A,1,31,22,14,,,,,,,,,,7.35,7.28,1.00*0A
$GPGSV,2,1,06,11,,,22,14,61,128,40,22,37,133,40,27,,,35*73
$GPGSV,2,2,06,31,20,033,47,33,42,056,40*7D
$GPGLL,,,,,183334.00,V,N*44
$GPRMC,183335.00,V,,,,,,,290415,,,N*79
$GPVTG,,,,,,,,,N*30
$GPGGA,183335.00,,,,,0,03,7.27,,,,,,*58
$GPGSA,A,1,31,22,14,,,,,,,,,,7.34,7.27,1.00*04
$GPGSV,2,1,06,11,,,19,14,61,128,41,22,37,133,40,27,,,35*7A
$GPGSV,2,2,06,31,20,033,47,33,42,056,40*7D
$GPGLL,,,,,183335.00,V$GPRMC,183336.00,V,,,,,,,290415,,,N*7A
$GPVTG,,,,,,,,,N*30
$GPGGA,183336.00,,,,,0,03,7.27,,,,,,*5B
$GPGSA,A,1,31,22,14,,,,,,,,,,7.34,7.27,1.00*04
$GPGSV,2,1,06,11,,,17,14,61,128,41,22,37,133,41,27,,,36*76
$GPGSV,2,2,06,31,20,033,47,33,42,056,40*7D
$GPGLL,,,,,183336.00,V,N*46
$GPRMC,183337.00,V,,,,,,,290415,,,N*7B
$GPVTG,,,,,,,,,N*30
$GPGGA,183337.00,,,,,0,03,7.27,,,,,,*5A
$GPGSA,A,1,31,22,14,,,,,,,,,,7.34,7.27,1.00*04
$GPGSV,2,1,05,14,61,128,40,22,37,133,40,7,,,36,31,20,033,47*40
$GPGSV,2,2,05,33,42,056,40*4D
$GPGLL,,,,,183337.00,V,N*47
$GPRMC,183338.00,V,,,,,,,290415,,,N*74
$GPVTG,,,,,,,,,N*30
$GPGGA,183338.00,,,,,0,03,7.27,,,,,,*55
$GPGSA,A,1,31,22,14,,,,,,,,,,7.34,7.27,1.00*04
$GPGSV,2,1,05,14,61,128,40,22,37,133,41,27,,,36,31,20,033,47*41
$GPGSV,2,2,05,33,42,056,40*4D
$GPGLL,,,,,183338.00,V,N*48
$GPRMC,183339.00,V,,,,,,,290415,,,N*75
$GPVTG,,,,,,,,,N*30
$GPGGA,183339.00,,,,,0,03,7.26,,,,,,*55
$GPGSA,A,1,31,22,14,,,,,,,,,,7.33,7.26,1.00*02
$GPGSV,2,1,05,14,61,128,40,22,37,133,41,27,,,36,31,20,033,47*41
$GPGSV,2,2,05,33,42,056,40*4D
$GPGLL,,,,,183339.00,V,N*49
$GPRMC,183339.00,V,,,,,,,290415,,,N*75
$GPVTG,,,,,,,,,N*30
$GPGGA,183339.00,,,,,0,03,7.26,,,,,,*55
$GPGSA,A,1,31,22,14,,,,,,,,,,7.33,7.26,1.00*02
$GPGSV,2,1,05,14,61,128,40,22,37,133,41,27,,,36,31,20,033*49
$GPRMC,183340.00,V,,,,,,,290415,,,N*7B
$GPVTG,,,,,,,,,N*30
$GPGGA,183340.00,,,,,0,03,7.26,,,,,,*5B
$GPGSA,A,1,31,22,14,,,,,,,,,,7.33,7.26,1.00*02
$GPGSV,2,1,05,14,61,128,40,22,37,133,40,37,31,20,033,47*41
$GPGSV,2,2,05,33,42,056,40*4D
$GPGLL,,,,,183340.00,V,N*47
$GPRMC,183341.00,V,,,,,,,290415,,,N*7A
$GPVTG,,,,,,,,,N*30
$GPGGA,183341.00,,,,,0,03,7.26,,,,,,*5A
$GPGSA,A,1,31,22,14,,,,,,,,,,7.32,7.26,1.00*03
$GPGSV,2,1,05,14,61,128,40,22,37,133,40,27,,,38,31,20,033,47*4E
$GPGSV,2,2,05,33,42,056,40*4D
$GPGLL,,,,,183341.00,V,N*46
$GPRMC,183342.00,V,,,,,,,290415,,,N*79
$GPVTG,,,,,,,,,N*30
$GPGGA,183342.00,,,,,0,03,7.25,,,,,,*5A
$GPGSA,A,1,31,22,14,,,,,,,,,,7.32,7.25,1.0
$GPGSV,2,1,06,04,,,29,14,61,128,40,22,37,133,40,27,,,38*71
$GPGSV,2,2,06,31,20,033,47,33,42,056,40*7D
$GPGLL,,,,,183342.00,V,N*45
$GPRMC,183343.00,V,,,,,,,290415,,,N*78
$GPVTG,,,,,,,,,N*30
$GPGGA,183343.00,,,,,0,03,7.25,,,,,,*5B
$GPGSA,A,1,31,22,14,,,,,,,,,,7.32,7.25,1.00*00
$GPGSV,2,1,06,04,,,29,14,61,128,40,22,37,133,40,27,,,37*7E
$GPGSV,2,2,06,31,20,033,47,33,42,056,40*7D
$GPGLL,,,,,183343.00,V,N*44
$GPRMC,183344.00,V,,,,,,,290415,,,N*7F
$GPVTG,,,,,,,,,N*30
$GPGGA,183344.00,,,,,0,03,7.25,,,,,,*5C
$GPGSA,A,1,31,22,14,,,,,,,,,$GPRMC,183345.00,V,,,,,,,290415,,,N*7E
$GPVTG,,,,,,,,,N*30
$GPGGA,183345.00,,,,,0,03,7.25,,,,,,*5D
$GPGSA,A,1,31,22,14,,,,,,,,,,7.31,7.25,1.00*03
$GPGSV,2,1,07,04,,,27,14,61,128,40,18,08,113,,22,37,133,39*4C
$GPGSV,2,2,07,27,,,39,31,20,033,48,33,42,056,39*72
$GPGLL,,,,,1$GPRMC,183346.00,V,,,,,,,290415,,,N*7D
$GPVTG,,,,,,,,,N*30
$GPGGA,183346.00,,,,,0,03,7.24,,,,,,*5F
$GPGSA,A,1,31,22,14,,,,,,,,,,7.31,7.24,1.00*02
$GPGSV,2,1,07,04,,,27,14,61,128,39,18,08,113,22,37,133,39*42
$GPGSV,2,2,07,27,,,38,31,20,033,46,33,42,056,39*7D
$GPGLL,,,,,183346.00,V,N*41
$GPRMC,183347.00,V,,,,,,,290415,,,N*7C
$GPVTG,,,,,,,,,N*30
$GPGGA,183347.00,,,,,0,03,7.24,,,,,,*5E
$GPGSA,A,1,31,22,14,,,,,,,,,,7.31,7.24,1.00*02
$GPGSV,2,1,08,04,,,26,14,61,128,38,18,08,113,,22,37,133,39*4D
$GPGSV,2,2,08,27,,,37,31,20,033,46,32,,,29,33,42,056,38*76
$GPGLL,,,,,183347.00,V,N*40
$GPRMC,183348.00,V,,,,,,,290415,,,N*73
$GPVTG,,,,,,,,,N*30
$GPGGA,183348.00,,,,,0,03,7.24,,,,,,*51
$GPGSA,A,1,31,22,14,,,,,,,,,,7.31,7.24,1.00*02
$GPGSV,2,1,08,04,,,26,14,61,128,39,18,08,113,,22,37,133,39*4C
$GPGSV,2,2,08,27,,,37,31,20,033,47,32,,,29,33,42,056,39*76
$GPGLL,,,,,183348.00,V,N*4F
$GPRMC,183349.00,V,,,,,,,290415,,,N*72
$GPVTG,,,,,,,,,N*30
$GPGGA,183349.00,,,,,0,03,7.23,,,,,,*57
$GPGSA,A,1,31,22,14,,,,,,,,,,7.30,7.23,1.00*04
$GPGSV,2,1,08,04,,,27,14,61,128,38,18,08,113,,22,37,133,40*42
$GPGSV,2,2,08,27,,,37,31,20,033,47,32,,,28,33,42,056,39*77
$GPGLL,,,,,183349.00,V,N*4E
$GPRMC,183350.00,V,,,,,,,290415,,,N*7A
$GPVTG,,,,,,,,,N*30
$GPGGA,183350.,,7.30,7.23,1.00*04
$GPGSV,2,1,08,04,,,28,14,61,128,38,18,08,113,,22,37,133,40*4D
$GPGSV,2,2,08,27,,,37,31,20,033,47,32,,,28,33,42,056,39*77
$GPGLL,,,,,183350.00,V,N*46
$GPRMC,183351.00,V,,,,,,,290415,,,N*7B
$GPVTG,,,,,,,,,N*30
$GPGGA,183351.00,,,,,0,03,7.23,,,,,,*5E
$GPGSA,A,1,31,22,14,,,,,,,,,,7.30,7.23,1.00*04
$GPGSV,2,1,08,04,,,28,14,61,128,38,18,08,113,,22,37,133,40*4D
$GPGSV,2,2,08,27,,,38,31,20,033,47,32,,,28,33,42,056,39*78GPGLL,,,,,183351.00,V,N*47
$GPRMC,183352.00,V,,,,,,,290415,,,N*78
$GPVTG,,,,,,,,,N*30
$GPGGA,183352.00,,,,,0,03,7.23,,,,,,*5D
$GPGSA,A,1,31,22,14,,,,,,,,,,7.30,7.23,1.00*04
$GPGSV,2,1,08,04,,,27,14,61,128,39,18,08,113,,22,37,133,40*43
$GPGSV,2,2,08,27,,,37,31,20,033,47,32,,,28,33,42,056,40*79
$GPGLL,,,,,183352.00,V,N*44
$GPRMC,183353.00,V,,,,,,,290415,,,N*79
$GPVTG,,,,,,,,,N*30
$GPGGA,183353.00,,,,,0,03,7.22,,,,,,*5D
$GPGSA,A,1,31,22,14,,,,,,,,,,7.29,7.22,1.00*0D
$GPGSV,2,1,08,04,,,27,14,61,128,38,18,08,113,,22,3,133,40*42
$GPGSV,2,2,08,27,,,37,31,20,033,47,32,,,27,33,42,056,39*78
$GPGLL,,,,,183353.00,V,N*45
$GPRMC,183354.00,V,,,,,,,290415,,,N*7E
$GPVTG,,,,,,,,,N*30
$GPGGA,183354.00,,,,,0,03,7.22,,,,,,*5A
$GPGSA,A,1,31,22,14,,,,,,,,,,7.29,7.22,1.00*0D
$GPGSV,2,1,08,04,,,27,14,61,128,39,18,08,113,,22,37,133,40*43
$GPGSV,2,2,08,27,,,37,31,20,033,47,32,,,27,33,42,056,40*76
$GPGLL,,,,$GPRMC,183355.00,V,,,,,,,290415,,,N*7F
$GPVTG,,,,,,,,,N*30
$GPGGA,183355.00,,,,,0,03,7.22,,,,,,*5B
$GPGSA,A,1,31,22,14,,,,,,,,,,7.29,7.22,1.00*0D
$GPGSV,2,1,08,04,,,28,14,61,128,39,18,08,113,,22,37,133,41*4D
$GPGSV,2,2,08,27,,,37,31,20,033,47,32,,,28,33,42,056,40*79
$GPGLL,,,,,183355.00,V,N*43
$GPRMC,183356.00,V,,,,,,,290415,,,N*7C
$GPVTG,,,,,,,,,N*30
$GPGGA,183356.00,,,,,0,03,7.22,,,,,,*58
$GPGSA,A,1,31,22,14,,,,,,,,,,7.29,7.22,1.00*0D
$GPGSV,2,1,08,04,,,27,14,61,128,39,18,08,113,,22,37,133,41*42
$GPGSV,2,2,08,27,,,37,31,20,033,47,32,,,28,33,42,056,40*79
$GPGLL,,,,,183356.00,V,N*40
$GPRMC,183357.00,A,2628.00676,S,04906.90551,W,0.147,,290415,,,A*77
$GPVTG,,T,,M,0.147,N,0.273,K,A*27
$GPGGA,183357.00,2628.00676,S,04906.90551,W,1,03,7.21,0.2,M,-1.5,M,,*4E
$GPGSA,A,2,31,22,14,,,,,,,,,,7.28,7.21,1.00*0C
$GPGSV,2,1,08,04,,,27,14,61,128,39,18,08,113,,22,37,133,41*42
$GPGSV,2,2,08,27,,,37,31,20,033,47,32,,,27,33,42,056,40*76
$GPGLL,2628.00676,S,04906.90551,W,183357.00,A,A*67
$GPRMC,183358.00,A,2628.00670,S,04906.90514,W,0.601,,290415,,,A*7A
$GPVTG,,T,,M,0.601,N,1.114,K,A*21
$GPGGA,183358.00,2628.00670,S,04906.90514,W,1,03,7.21,0.1,M,-1.5,M,,*45
$GPGSA,A,2,31,00*0C
$GPGSV,2,1,08,04,,,27,14,61,128,39,18,08,113,,22,37,133,41*42
$GPGSV,2,2,08,27,,,38,31,20,033,47,32,,,27,33,42,056,40*79
$GPGLL,2628.00670,S,04906.90514,W,183358.00,A,A*6F
$GPRMC,183359.00,A,2628.00668,S,04906.90488,W,0.839,,290415,,,A*73
$GPVTG,,T,,M,0.839,N,1.554,K,A*24
$GPGGA,183359.00,2628.00668,S,04906.90488,W,1,03,7.21,0.1,M,-1.5,M,,*49
$GPGSA,A,2,31,22,149,18,08,113,,22,37,133,41*42
$GPGSV,2,2,08,27,,,38,31,20,033,47,32,,,27,33,42,056,79
$GPGLL,2628.00668,S,04906.90488,W,183359.00,A,A*63
$GPRMC,183400.00,A,2628.00663,S,04906.90450,W,0.576,,290415,,,A*70
$GPVTG,,T,,M,0.576,N,1.067,K,A*27
$GPGGA,183400.00,2628.00663,S,04906.90450,W,1,03,7.21,0.1,M,-1.5,M,,*4C
$GPGSA,A,2,31,22,14,,,,,,,,,,7.27,7.21,1.00*03
$GPGSV,3,1,09,04,,,27,14,61,128,39,18,08,113,,22,37,133,41*42
$GPGSV,3,2,09,27,,,37,31,20,033,47,32,,,28,33,42,056,40*79
$GPGSV,3,3,09,39,05,082,*45
$GPGLL,2628.00663,S,04906.90450,W,183400.00,A,A*66
$GPRMC,183401.00,A,2628.00659,S,04906.90397,W,0.989,,290415,,,A*78
$GPVTG,,T,,M,0.989,N,1.832,K,A*23
$GPGGA,183401.00,2628.00659,S,04906.90397,W,1,03,7.20,0.0,M,-1.5,M,,*48
$GPGSA,A,2,31,22,14,,,,,,,,,,7.27,7.20,1.00*02
$GPGSV,3,1,09,04,,,27,14,61,128,39,18,08,113,,22,37,133,41*42
$GPGSV,3,2,09,27,,,37,31,20,033,47,32,,,29,33,42,056,40*78
$GPGSV,3,3,09,39,05,082,*45
$GPGLL,2628.00659,S,04906.90397,W,183401.00,A,A*62
$GPRMC,183402.00,A,2628.00651,S,04906.90385,W,0.423,,290415,,,A*7D
$GPVTG,,T,,M,0.423,N,0.783,K,A*2A
$GPGGA,183402.00,2628.00651,S,04906.90385,W,1,03,7.20,0.0,M,-1.5,M,,*40
$GPGSA,A,2,31,22,14,,,,,,,,,,7.27,7.20,1.00*02
$GPGSV,3,1,09,04,,,27,14,61,128,39,18,08,113,17,22,37,133,41*44
$GPGSV,3,2,09,27,,,37,31,20,033,47,32,,,29,33,42,056,40*78
$GPGSV,3,3,09,39,05,082,*45
$GPGLL,2628.00651,S,04906.90385,W,183402.00,A,A*6A
$GPRMC,183403.00,A,2628.00169,S,04906.86543,W,0.177,,290415,,,A*7F
$GPVTG,,T,,M,0.177,N,0.329,K,A*2A
$GPGGA,183403.00,2628.00169,S,04906.86543,W,1,04,3.61,36.7,M,-1.5,M,,*72
$GPGSA,A,3,31,2,27,14,,,,,,,,,6.56,3.61,5.48*08
$GPGSV,3,1,09,04,,,26,14,61,128,39,18,08,113,17,22,37,133,41*45
$GPGSV,3,2,09,27,49,334,37,31,20,033,47,32,,,30,33,42,056,40*49
$GPGSV,3,3,09,39,05,082,*45
$GPGLL,2628.00169,S,04906.86543,W,183403.00,A,A*6C
$GPRMC,183404.00,A,2628.00147,S,04906.86571,W,0.074,,290415,,,A*77
$GPVTG,,T,,M,0.074,N,0.138,K,A*2A
$GPGGA,183404.00,2628.00147,S,04906.86571,W,1,04,3.61,36.6,M,-1.5,M,,*79
$GPGSA,A,3,31,22,27,14,,,,,,,,,6.56,3.61,5.48*08
$GPGSV,3,1,09,04,,,25,14,61,128,398,08,113,16,22,37,133,41*47
$GPGSV,3,2,09,27,49,334,37,31,20,033,48,32,,,30,33,42,056,40*46
$GPGSV,3,3,09,39,05,082,*45
$GPGLL,2628.00147,S,04906.86571,W,183404.00,A,A*66
$GPRMC,183405.00,A,2628.00151,S,04906.86556,W,0.185,,290415,,,A*7B
$GPVTG,,T,,M,0.185,N,0.342,K,A*2A
$GPGGA,183405.00,2628.00151,S,04906.86556,W,1,04,3.61,36.4,M,-1.5,M,,*78
$GPGSA,A,3,31,22,27,14,,,,,,,,,6.57,3.61,5.48*09
$GPGSV,3,1,09,04,,,25,14,61,128,39,18,08,113,17,22,37,133,41*46
$GPGSV,3,2,09,27,49,334,37,31,20,033,48,32,,,31,33,42,056,40*47
$GPGSV,3,3,09,39,05,082,*45
$GPGLL,2628.00151,S,04906.86556,W,183405.00,A,A*65
$GPRMC,183406.00,A,2628.00147,S,04906.86537,W,0.524,,290415,,,A*77
$GPVTG,,T,,M,0.524,N,0.971,K,A*2F
$GPGGA,183406.00,2628.00147,S,04906.86537,W,1,04,3.61,36.7,M,-1.5,M,,*78
$GPGSA,A,3,31,22,27,14,,,,,,,,,6.57,3.61,5.49*08
$GPGSV,3,1,09,04,,,26,14,61,128,39,18,08,113,17,22,37,133,41*45
$GPGSV,3,2,09,27,49,334,37,31,20,033,48,32,,,31,33,42,05S,04906.86537,W,183406.00,A,A*66
$GPRMC,183407.00,A,2628.00140,S,04906.86522,W,0.376,,290415,,,A*74
$GPVTG,,T,,M,0.376,N,0.697,K,A*29
$GPGGA,183407.00,2628.00140,S,04906.86522,W,1,04,3.61,36.9,M,-1.5,M,,*74
$GPGSA,A,3,31,22,27,14,,,,,,,,,6.57,3.61,5.49*08
$GPGSV,3,1,09,04,,,26,14,61,128,39,18,08,113,14,22,37,133,41*46
$GPGSV,3,2,09,27,49,334,37,31,20,033,48,32,,,31,33,42,056,40*47
$GPGSV,3,3,09,39,05,082,*45
$GPGLL,2628.00140,S,04906.86522,W,183407.00,A,A*64
$GPRMC,183408.00,A,2628.00134,S,04906.86515,W,0.285,,290415,,,A*71
$GPVTG,,T,,M,0.285,N,0.527,K,A*2C
$GPGGA,183408.00,2628.00134,S,04906.8651M,,*7D
$GPGSA,A,3,31,22,27,14,,,,,,,,,6.57,3.61,5.49*08
$GPGSV,3,1,09,04,,,26,14,61,128,39,18,08,113,12,22,37,133,41*40
$GPGSV,3,2,09,27,49,334,37,31,20,033,48,32,,,31,33,42,056,40*47
$GPGSV,3,3,09,39,05,082,*45
$GPGLL,2628.00134,S,04906.86515,W,183408.00,A,A*6C
$GPRMC,183409.00,A,2628.00131,S,04906.86519,W,0.334,,290415,,,A*72
$GPVTG,,T,,M,0.334,N,0.618,K,A*28
$GPGGA,183409.00,2628.00131,S,04906.86519,W,1,04,3.61,36.8,M,-1.5,M,,*75
$GPGSA,A,3,31,22,27,14,,,,,,,,,6.57,3.61,5.49*08
$GPGSV,3,1,09,04,,,25,14,61,128,39,18,08,11,09,22,37,133,41*49
$GPGSV,3,2,09,27,49,334,37,31,20,033,48,32,,,31,33,42,056,40*47
$GPGSV,3,3,09,39,05,082,*45
$GPGLL,2628.00131,S,04906.86519,W,183409.00,A,A*64
$GPRMC,183410.00,A,2628.00134,S,04906.86537,W,0.172,,290415,,,A*73
$GPVTG34,S,04906.86537,W,1,04,3.61,36.4,M,-1.5,M,,*78
$GPGSA,A,3,31,22,27,14,,,,,,,,,6.57,3.61,5.49*08
$GPGSV,3,1,09,04,,,25,14,61,128,39,18,08,113,,22,37,133,41*40
$GPGSV,3,2,09,27,49,334,38,31,20,033,48,32,,,31,33,42,056,40*48$GPGSV,3,3,09,39,05,082,*45
$GPGLL,2628.00134,S,04906.86537,W,183410.00,A,A*65
$GPRMC,183411.00,A,2628.00134,S,04906.86539,W,0.102,,290415,,,A*7B
$GPVTG,,T,,M,0.102,N,0.189,K,A*20
$GPGGA,183411.00,2628.00134,S,04906.86539,W,1,04,3.61,36.1,M,-1.5,M,,*72
$GPGSA,A,3,31,22,27,14,,,,,,,,,6.58,3.61,5.49*07
$GPGSV,3,1,09,04,,,25,14,61,128,39,18,08,113,,22,37,133,41*40
$GPGSV,3,2,09,27,49,334,38,31,20,033,48,32,,,31,33,42,056,40*48
$GPGSV,3,3,09,39,05,082,*45
$GPGLL,2628.00134,S,04906.86539,W,183411.00,A,A*6A
$GPRMC,183412.00,A,2628.00135,S,04906.86533,W,0.284,,290415,,,A*7E
$GPVTG,,T,,M,0.284,N,0.527,K,A*2D
$GPGGA,183412.00,2628.00135,S,04906.86533,W,1,04,3.61,36.0,M,-1.5,M,,*7B
$GPGSA,A,3,31,22,27,14,,,,,,,,,6.58,3.61,5.50*0F
$GPGSV,3,1,09,04,,,25,14,61,128,39,18,08,113,,22,37,133,41*40
$GPGSV,3,2,09,27,49,334,38,31,20,033,48,32,,,31,33,42,056,40*48
$GPGSV,3,3,09,39,05,082,*45
$GPGLL,2628.00135,S,04906.86533,W,183412.00,A,A*62
$GPRMC,183413.00,A,2628.00133,S,04906.86524,W,0.170,,290415,,,A*77
$GPVTG,,T,,M,0.170,N,0.314,K,A*23
$GPGGA,183413.00,2628.00133,S,04906.86524,W,1,04,3.61,35.8,M,-1.5,M,,*71
$GPGSA,A,3,31,22,27,14,,,,,,,,,6.58,3.61,5.50*0F
$GPGSV,3,1,09,04,,,24,14,61,128,39,1848,32,,,32,33,42,056,40*4B
$GPGSV,3,3,09,39,05,082,*45
$GPGLL,2628.00133,S,04906.86524,W,183413.00,A,A*63
$GPRMC,183414.00,A,2628.00132,S,04906.86509,W,0.134,,290415,,,A*7E
$GPVTG,,T,,M,0.134,N,0.248,K,A*2B
$GPGGA,183414.00,2628.00132,S,04906.86509,W,1,04,3.61,35.8,M,-1.5,M,,*78
$GPGSA,A,3,31,22,27,,,,,,,,,,6.58,3.61,5.50*0F
$GPGSV,3,1,09,04,,,24,14,61,128,39,18,08,113,,22,37,133,41*41
$GPGSV,3,2,09,27,49,334,38,31,20,033,48,32,,,32,33,42,056,40*4B
$GPGSV,3,3,09,39,05,082,*45
$GPGLL,2628.00132,S,04906.86509,W,183414.00,A,A*6A
$GPRMC,183415.00,A,2628.00133,S,04906.86497,W,0.204,,290415,,,A*78
$GPVTG,,T,,M,0.204,N,0.377,K,A*26
$GPGGA,183415.00,2628.00133,S,04906.86497,W,1,04,3.61,35.7,M,-1.5,M,,*71
$GPGSA,A,3,31,22,27,14,,,,,,,,,6.58,3.61,5.50*0F
$GPGSV,3,1,10,04,,,24,14,61,128,39,18,08,113,,19,4,*4C
$GPGSV,3,2,10,22,37,133,41,27,49,334,38,31,20,033,48,32,,,32*42
$GPGSV,3,3,10,33,42,056,40,39,05,082,*7C
$GPGLL,2628.00133,S,04906.86497,W,183415.00,A,A*6C
$GPRMC,183416.00,A,2628.00130,S,04906.86482,W,0.111,,290415,,,A*7B
$GPVTG,,T,,M,0.111,N,0.205,K,A*25
$GPGGA,183416.00,2628.00130,S,04906.86482,W,1,04,3.61,35.7,M,-1.5,M,,*75
$GPGSA,A,3,31,22,27,14,,,,,,,,,6.58,3.61,5.50*0F
$GPGSV,3,1,10,04,,,25,14,61,128,39,18,08,113,,19,59,274,20*4F
$GPGSV,3,2,10,22,37,133,41,27,49,334,38,31,20,033,48,32,,,32*42
$GPGSV,0,33,42,056,40,39,05,082,*7C
$GPGLL,2628.00130,S,04906.86482,W,183416.00,A,A*68
$GPRMC,183417.00,A,2628.00124,S,04906.86480,W,0.127,,290415,,,A*78
$GPVTG,,T,,M,0.127,N,0.235,K,A*23
$GPGGA,183417.00,2628.00124,S,04906.86480,W,1,04,3.61,35.6,M,-1.5,M,,*72
$GPGSA,A,3,31,22,27,14,,,,,,,,,6.58,3.61,5.50*0F
$GPGSV,3,1,10,04,,,25,14,61,128,49,334,38,31,20,033,48,32,,,32*41
$GPGSV,3,3,10,33,42,056,40,39,05,082,*7C
$GPGLL,2628.00124,S,04906.86480,W,183417.00,A,A*6E
$GPRMC,183418.00,A,2628.00121,S,04906.86485,W,0.082,,290415,,,A*79
$GPVTG,,T,,M,0.082,N,0.152,K,A*2F
$GPGGA,183418.00,2628.00121,S,04906.86485,W,1,04,3.61,35.4,M,-1.5,M,,*7F
$GPGSA,A,3,31,22,27,14,,,,,,,,,6.59,3.61,5.51*0F
$GPGSV,3,1,10,04,,,25,14,61,128,39,18,08,113,,19,59,274,20*4F
$GPGSV,3,2,10,22,37,133,41,27,49,334,38,31,20,033,48,32,,,32*42
$GPGSV,3,3,10,33,42,056,40,39,05,082,*7C
$GPGLL,2628.00121,S,04906.86485,W,183418.00,A,A*61
$GPRMC,183419.00,A,2628.00117,S,04906.86473,W,0.169,,290415,,,A*70
$GPVTG,,T,,M,0.169,N,0.313,K,A*2C
$GPGGA,183419.00,2628.00117,S,04906.86473,W,1,04,3.61,35.2,M,-1.5,M,,*74
$GPGSA,A,3,31,22,27,14,,,,,,,,,6.59,3.61,5.51*0F
$GPGSV,3,1,10,04,,,25,14,61,128,40,18,08,113,18,19,59,274,19*42
$GPGSV,3,2,10,22,37,133,42,27,49,334,38,31,20,033,48,32,,,32*41
$GPGSV,3,3,10,33,42,056,40,39,05,082,*7C
$GPGLL,2628.00117,S,04906.86473,W,183419.00,A,A*6C
$GPRMC,183420.00,A,2628.00117,S,04906.86476,W,0.128,,290415,,,A*7A
$GPVTG,,T,,M,0.128,N,0.237,K,A*2E
$GPGGA,183420.00,2628.00117,S,04906.86476,W,1,04,3.61,34.9,M,-1.5,M,,*71
$GPGSA,A,3,31,22,27,14,,,,,,,,,6.59,3.61,5.51*0F
$GPGSV,3,1,10,04,,,25,14,61,128,40,18,08,113,18,19,59,274,18*43
$GPGSV,3,2,10,22,37,133,42,27,49,334,38,31,20,033,48,32,,,32*41
$GPGSV,3,3,10,33,42,056,40,39,05,082,*7C
$GPGLL,2628.00117,S,04906.86476,W,183420$GPRMC,183421.00,A,2628.00118,S,04906.86475,W,0.107,,290415,,,A*7A
$GPVTG,,T,,M,0.107,N,0.197,K,A*2A
$GPGGA,183421.00,2628.00118,S,04906.86475,W,1,04,3.61,34.6,M,-1.5,M,,*73
$GPGSA,A,3,31,22,27,14,,,,,,,,,6.59,3.61,5.51*0F
$GPGSV,3,1,10,04,,,24,14,61,128,40,18,,113,19,19,59,274,17*4C
$GPGSV,3,2,10,22,37,133,42,27,49,334,38,31,20,033,48,32,,,32*41
$GPGSV,3,3,10,33,42,056,40,39,05,082,*7C
$GPGLL,2628.00118,S,04906.86475,W,183421.00,A,A*6E
$GPRMC,183422.00,A,2628.00119,S,04906.86470,W,0.099,,290415,,,A*7B
$GPVTG,,T,,M,0.099,N,0.184,K,A*2E
$GPGGA,183422.00,2628.00119,S,04906.86470,W,1,04,3.61,34.3,M,-1.5,M,,*71
$GPGSA,A,3,31,22,27,14,,,,,,,,,6.59,3.61,5.51*0F
$GPGSV,3,1,10,04,,,24,14,61,128,40,18,08,113,20,19,59,2715*44
$GPGSV,3,2,10,22,37,133,42,27,49,334,38,31,20,033,48,32,,,32*41
$GPGSV,3,3,10,33,42,056,40,39,05,082,*7C
$GPGLL,2628.00119,S,04906.86470,W,183422.00,A,A*69
$GPRMC,183423.00,A,2628.00118,S,04906.86473,W,0.313,,290415,,,A*79
$GPVTG,,T,,M,0.313,N,0.580,K,A*2F
$GPGGA,183423.00,2628.00118,S,04906.86473,W,1,04,3.61,34.1,M,-1.5,M,,*70
$GPGSA,A,3,31,22,27,14,,,,,,,,,6.59,3.61,5.51*0F
$GPGSV,3,1,10,04,,,24,14,61,128,40,18,08,113,21,19,59,274,*41
$GPGSV,3,2,10,22,37,133,41,27,49,334,38,31,20,033,48,32,,,322
$GPGSV,3,3,10,33,42,056,40,39,05,082,*7C
$GPGLL,2628.00118,S,04906.86473,W,183423.00,A,A*6A
$GPRMC,183424.00,A,2628.00114,S,04906.86461,W,0.458,,290415,,,A*79
$GPVTG,,T,,M,0.458,N,0.849,K,A*2F
$GPGGA,183424.00,2628.00114,S,04906.86461,W,1,04,3.61,33.9,M,-1.5,M,,*77
$GPGSA,A,3,31,22,27,14,,,,,,,,,6.59,3.61,5.52*0C
$GPGSV,3,1,10,04,,,24,14,61,128,40,18,08,113,21,19,59,274,*41
$GPGSV,3,2,10,22,37,133,42,27,49,334,39,31,20,033,48,32,,,31*43
$GPGSV,3,3,10,33,42,056,40,39,05,082,*7C
$GPGLL,26114,S,04906.86461,W,183424.00,A,A*62
$GPRMC,183425.00,A,2628.00112,S,04906.86454,W,0.178,,290415,,,A*7F
$GPVTG,,T,,M,0.178,N,0.329,K,A*25
$GPGGA,183425.00,2628.00112,S,04906.86454,W,1,04,3.61,33.8,M,-1.5,M,,*77
$GPGSA,A,3,31,22,27,14,,,,,,,,,6.60,3.61,5.52*06
$GPGSV,3,1,10,04,,,23,14,61,128,40,18,08,113,21,19,59,274,*46
$GPGSV,3,2,10,22,37,133,42,27,49,334,39,31,20,033,48,32,,,32*40
$GPGSV,3,3,10,33,42,056,40,39,05,082,*7C
$GPGLL,2628.00112,S,04906.86454,W,183425.00,A,A*63
$GPRMC,183426.00,A,2628.00111,S,04906.86459,W,0.135,,290415,,,A*7B
$GPVTG,,T,,M,0.135,N,0.250,K,A*23
$GPGGA,183426.00,2628.00111,S,04906.86459,W,1,04,3.62,33.6,M,-1.5,M,,*77
$GPGSA,A,3,31,22,27,14,,,,,,,,,6.60,3.62,5.52*05
$GPGSV,3,1,10,04,,,22,14,61,128,40,18,08,113,21,19,59,274,*47
$GPGSV,3,2,10,22,37,133,42,27,49,334,39,31,20,033,48,32,,,31*43
$GPGSV,3,3,10,33,42,056,40,39,05,082,*7C
$GPGLL,2628.00111,S,04906.86459,W,183426.00,A,A*6E
$GPRMC,183427.00,A,2628.00108,S,04906.86448,W,0.216,,290415,,,A*70
$GPVTG,,T,,M,0.216,N,0.399,K,A*25
$GPGGA,183427.00,2623.62,33.6,M,-1.5,M,,*7E
$GPGSA,A,3,31,22,27,14,,,,,,,,,6.60,3.62,5.52*05
$GPGSV,3,1,10,04,,,22,14,61,128,40,18,08,113,22,19,59,274,*44
$GPGSV,3,2,10,22,37,133,42,27,49,334,38,31,20,033,48,32,,,31*42
$GPGSV,3,3,10,33,42,056,40,39,05,082,*7C
$GPGLL,2628.00108,S,04906.86448,W,183427.00,A,A*67
$GPRMC,183428.00,A,2628.00106,S,04906.86432,W,0.076,,290415,,,A*78
$GPVTG,,T,,M,0.076,N,0.141,K,A*26
$GPGGA,183428.00,2628.00106,S,04906.86432,W,1,04,3.62,33.6,M,-1.5,M,,*72
$GPGSA,A,3,31,22,27,14,,,,,,,,6.60,3.62,5.52*05
$GPGSV,3,1,10,04,,,22,14,61,128,40,18,08,113,22,19,59,274,*44
$GPGSV,3,2,10,22,37,133,42,27,49,334,39,31,20,033,48,32,,,31*43
$GPGSV,3,3,10,33,42,056,40,39,05,082,*7C
$GPGLL,2628.00106,S,04906.86432,W,183428.00,A,A*6B
$GPRMC,183429.00,A,2628.00104,S,04906.86415,W,0.414,,290415,,,A*7E
$GPVTG,,T,,M,0.414,N,0.766,K,A*25
$GPGGA,183429.00,2628.00104,S,04906.86415,W,1,04,3.62,33.6,M,-1.5,M,,*74
$GPGSA,A,3,31,22,27,14,,,,,,,,,6.60,3.62,5.52*05
$GPGSV,3,1,10,04,,,20,14,61,128,40,18,08,113,22,19,59274,*46
$GPGSV,3,2,10,22,37,133,42,27,49,334,38,31,20,033,48,32,,,32*41
$GPGSV,3,3,10,33,42,056,40,39,05,082,*7C
$GPGLL,2628.00104,S,04906.86415,W,183429.00,A,A*6D
$GPRMC,183430.00,A,2628.00100,S,04906.86402,W,0.138,,290415,,,A*7F
$GPVTG,,T,,M,0.138,N,0.255,K,A*2B
$GPGGA,183430.00,2628.00100,S,04906.86402,W,1,04,3.62,33.7,M,-1.5,M,,*7F
$GPGSA,A,3,31,22,27,14,,,,,,,,,6.60,3.62,5.53*04
$GPGSV,3,1,10,04,,,19,14,61,128,40,18,08,113,23,19,59,274,*4D
$GPGSV,3,2,10,22,37,133,42,27,49,334,38,31,0,033,48,32,,,32*41
$GPGSV,3,3,10,33,42,056,40,39,05,082,*7C
$GPGLL,2628.00100,S,04906.86402,W,183430.00,A,A*67
$GPRMC,183431.00,A,2628.00100,S,04906.86389,W,0.614,,290415,,,A*73
$GPVTG,,T,,M,0.614,N,1.137,K,A*24
$GPGGA,183431.00,2628.00100,S,04906.86389,W,1,04,3.62,33.7,M,-1.5,M,,*7A
$GPGSA,A,3,31,22,27,14,,,,,,,,,6.61,3.62,5.53*05
$GPGSV,3,1,09,14,61,128,40,18,08,113,23,19,59,274,,22,37,133,42*7A
$GPGSV,3,2,09,27,49,334,38,31,20,033,48,32,,,32,33,42,056,40*4B
$GPGSV,3,3,09,39,05,082,*45
$GPGLL,2628.00100,04906.86389,W,183431.00,A,A*62
$GPRMC,183432.00,A,2628.00100,S,04906.86382,W,0.106,,290415,,,A*7F
$GPVTG,,T,,M,0.106,N,0.197,K,A*2B
$GPGGA,183432.00,2628.00100,S,04906.86382,W,1,04,3.62,33.8,M,-1.5,M,,*7D
$GPGSA,A,3,31,22,27,14,,,,,,,,,6.61,3.62,5.53*05
$GPGSV,3,1,09,14,61,128,40,18,08,113,23,19,59,274,,22,37,133,42*7A
$GPGSV,3,2,09,27,49,334,38,31,20,033,48,32,,,32,33,42,056,40*4B
$GPGSV,3,3,09,39,05,082,*45
$GPGLL,2628.00100,S,04906.86382,W,183432.00,A,A*6A
$GPRMC,183433.00,A,2628.00089,S,04906.86345,W,0.355,,290415,,,A*71
$GPVTG,,T,,M,0.355,N,0.657,K,A*24
$GPGGA,183433.00,2628.00089,S,04906.86345,W,1,05,1.36,34.2,M,-1.5,M,,*78
$GPGSA,A,3,31,22,27,32,14,,,,,,,,3.40,1.36,3.11*01
$GPGSV,3,1,09,14,61,128,40,18,08,113,23,19,59,274,,22,37,133,42*7A
$GPGSV,3,2,09,27,49,334,38,31,20,033,48,32,41,250,32,33,42,056,40*79
$GPGSV,3,3,09,39,05,082,*45
$GPGLL,2628.00089,S,04906.86345,W,183433.00,A,A*60
$GPRMC,183434.00,A,2628.00080,S,04906.86317,W,0.020,,290415,,,A*79
$GPVTG,,T,,M,0.020,N,0.036,K,A*24
$GPGGA,183434.00,2628.00080,S,04906.86314,,,,,,,,3.40,1.36,3.11*01
$GPGSV,3,1,09,14,61,128,40,18,08,113,22,19,59,274,,22,37,133,42*7B
$GPGSV,3,2,09,27,49,334,38,31,20,033,48,32,41,250,32,33,42,056,40*79
$GPGSV,3,3,09,39,05,082,*45
$GPGLL,2628.00080,S,04906.86317,W,183434.00,A,A*69
$GPRMC,183435.00,A,2628.00069,S,04906.86285,W,0.061,,290415,,,A*70
$GPVTG,,T,,M,0.061,N,0.113,K,A*27
$GPGGA,183435.00,2628.00069,S,04906.86285,W,1,05,1.36,34.9,M,-1.5,M,,*76
$GPGSA,A,3,31,22,27,32,14,,,,,.40,1.36,3.11*01
$GPGSV,3,1,09,14,61,128,40,18,08,113,22,19,59,274,,22,37,133,42*7B
$GPGSV,3,2,09,27,49,334,38,31,20,033,48,32,41,250,32,33,42,056,40*79
$GPGSV,3,3,09,39,05,082,*45
$GPGLL,2628.00069,S,04906.86285,W,183435.00,A,A*65
$GPRMC,183436.00,A,2628.00058,S,04906.86251,W,0.025,,290415,,,A*78
$GPVTG,,T,,M,0.025,N,0.046,K,A*26
$GPGGA,183436.00,2628.00058,S,04906.86251,W,1,05,1.36,35.1,M,-1.5,M,,*77
$GPGSA,A,3,31,22,27,32,14,,,,,,,,3.40,1.36,3.11*01
$GPGSV,3,1,09,14,61,128,40,18,08,113,23,19,59,274,,22,37,133,42*7A
$GPGSV,3,2,09,27,49,334,3833,42,056,40*79
$GPGSV,3,3,09,39,05,082,*45
$GPGLL,2628.00058,S,04906.86251,W,183436.00,A,A*6D
$GPRMC,183437.00,A,2628.00046,S,04906.86232,W,0.043,,290415,,,A*73
$GPVTG,,T,,M,0.043,N,0.080,K,A*2C
$GPGGA,183437.00,2628.00046,S,04906.86232,W,1,05,1.36,35.2,M,-1.5,M,,*7F
$GPGSA,A,3,31,22,27,32,14,,,,,,,,3.40,1.36,3.12*02
$GPGSV,3,1,09,14,61,128,40,18,08,113,23,19,59,274,,22,37,133,42*7A
$GPGSV,3,2,09,27,49,334,37,31,20,033,48,32,41,250,32,33,42,056,40*76
$GPGSV,3,3,09,39,05,082,*45
$GPGLL,268.00046,S,04906.86232,W,183437.00,A,A*66
$GPRMC,183438.00,A,2628.00041,S,04906.86219,W,0.022,,290415,,,A*75
$GPVTG,,T,,M,0.022,N,0.041,K,A*26
$GPGGA,183438.00,2628.00041,S,04906.86219,W,1,05,1.36,35.4,M,-1.5,M,,*78
$GPGSA,A,3,31,22,27,32,14,,,,,,,,3.40,1.36,3.12*02
$GPGSV,3,1,09,14,61,128,40,18,08,113,23,19,59,274,,22,37,133,42*7A
$GPGSV,3,2,09,27,49,334,37,31,20,033,48,32,41,250,32,33,42,056,40*76
$GPGSV,3,3,09,39,05,082,*45
$GPGLL,2628.00041,S,04906.86219,W,183438.00,A,A*67
$GPRMC,183439.00,A,2628.00038,S,04906.86209,W,0.020,,290415,,,A*79
$GPVTG,,T,,M,0.020,N,0.036,K,A*24
$GPGGA,183439.00,2628.00038,S,04906.86209,W,1,05,1.36,35.6,M,-1.5,M,,*74
$GPGSA,A,3,31,22,27,32,14,,,,,,,,3.40,1.36,3.12*02
$GPGSV,3,1,09,14,61,128,40,18,08,113,24,19,59,274,,22,37,133,42*7D
$GPGSV,3,2,09,27,49,334,37,31,20,033,48,32,41,250,32,33,42,056,40*76
$GPGSV,3,3,09,39,05,082,*45
$GPGLL,2628.00038,S,04906.86209,W,183439.00,A,A*69
$GPRMC,183440.00,A,2628.00030,S,04906.86199,W,0.019,,290415,,,A*7F
$GPVTG,,T,,M,0.019,N,0.036,K,A*2E
$GPGGA,183440.00,2628.00030,S,04906.86199,W,1,05,1.36,35.8,M,-1.5,M,,*76
$GPGSA,A,3,31,22,27,32,14,,,,,,,,3.40,1.36,3.12*02
$GPGSV,3,1,09,14,61,128,41,18,08,113,24,19,59,274,,22,37,133,42*7C
$GPGSV,3,2,09,27,49,334,37,31,20,033,48,32,41,250,32,33,42,056,40*76
$GPGSV,3,3,09,39,05,082,*45
$GPGLL,2628.00030,S,04906.86199,W,183440.00,A,A*65
$GPRMC,183441.00,A,2628.00021,S,04906.86187,W,0.031,,290415,,,A*7B
$GPVTG,,T,,M,0.031,N,0.057,K,A*23
$GPGGA,183441.00,2628.000214,,,,,,,,3.40,1.36,3.12*02
$GPGSV,3,1,09,14,61,128,41,18,08,113,24,19,59,274,,22,37,133,42*7C
$GPGSV,3,2,09,27,49,334,37,31,20,033,48,32,41,250,32,33,42,056,40*76
$GPGSV,3,3,09,39,05,082,*45
$GPGLL,2628.00021,S,04906.86187,W,183441.00,A,A*6B
$GPRMC,183442.00,A,2628.00016,S,04906.86181,W,0.034,,290415,,,A*7F
$GPVTG,,T,,M,0.034,N,0.062,K,A*20
$GPGGA,183442.00,2628.00016,S,04906.86181,W,1,05,1.36,36.0,M,-1.5,M,,*72
$GPGSA,A,3,31,22,27,32,14,,,,,,,,3.40,1.36,3.12*02
$GPGSV,3,1,09,14,61,128,41,18,08,113,24,19,59,274,,237,133,42*7C
$GPGSV,3,2,09,27,49,334,37,31,20,033,48,32,41,250,32,33,42,056,40*76
$GPGSV,3,3,09,39,05,082,*45
$GPGLL,2628.00016,S,04906.86181,W,183442.00,A,A*6A
$GPRMC,183443.00,A,2628.00012,S,04906.86176,W,0.011,,290415,,,A*75
$GPVTG,,T,,M,0.011,N,0.021,K,A*20
$GPGGA,183443.00,2628.00012,S,04906.86176,W,1,05,1.36,36.2,M,-1.5,M,,*7D
$GPGSA,A,3,31,22,27,32,14,,,,,,,,3.41,1.36,3.12*03
$GPGSV,3,1,09,14,61,128,41,18,08,113,25,19,59,274,,22,37,133,42*7D
$GPGSV,3,2,09,27,49,334,37,31,20,033,48,32,41,250,32,356,40*76
$GPGSV,3,3,09,39,05,082,*45
$GPGLL,2628.00012,S,04906.86176,W,183443.00,A,A*67
$GPRMC,183444.00,A,2628.00008,S,04906.86171,W,0.024,,290415,,,A*78
$GPVTG,,T,,M,0.024,N,0.044,K,A*25
$GPGGA,183444.00,2628.00008,S,04906.86171,W,1,05,1.36,36.3,M,-1.5,M,,*77
$GPGSA,A,3,31,22,27,32,14,,,,,,,,3.41,1.36,3.12*03
$GPGSV,3,1,09,14,61,128,41,18,08,113,25,19,59,274,,22,37,133,42*7D
$GPGSV,3,2,09,27,49,334,37,31,20,033,48,32,41,250,32,33,42,056,40*76
$GPG3,09,39,05,082,*45
$GPGLL,2628.00008,S,04906.86171,W,183444.00,A,A*6C
$GPRMC,183445.00,A,2628.00004,S,04906.86171,W,0.265,174.44,290415,,,A*6E
$GPVTG,174.44,T,,M,0.265,N,0.490,K,A*33
$GPGGA,1,*7B
$GPGSA,A,3,31,22,27,32,14,,,,,,,,3.41,1.36,3.12*03
$GPGSV,3,1,09,14,61,128,41,18,08,113,25,19,59,274,,22,37,133,42*7D
$GPGSV,3,2,09,27,49,334,37,31,20,033,48,32,41,250,32,33,42,056,40*76
$GPGSV,3,3,09,39,05,082,*45
$GPGLL,2628.00004,S,04906.86171,W,183445.00,A,A*61
$GPRMC,183446.00,A,2628.00002,S,04906.86173,W,0.061,,290415,,,A*73
$GPVTG,,T,,M,0.061,N,0.113,K,A*27
$GPGGA,183446.00,2628.00002,S,04906.86173,W,1,05,1.36,36.1,M,-1.5,M,,*7F
$GPGSA,A,3,31,22,27,32,14,,,,,,,,3.41,1.36,3.12*03
$GPGSV,3,1,09,14,61,128,41,18,08,113,25,19,59,274,,22,37,133,42*7D
$GPGSV,3,2,09,27,49,334,37,31,20,033,49,32,41,250,32,33,42,056,40*77
$GPGSV,3,3,09,39,05,082,*45
$GPGLL,2628.00002,S,04906.86173,W,183446.00,A,A*66
$GPRMC,183447.00,A,2628.00001,S,04906.86170,W,0.010,,290415,,,A*74
$GPVTG,,T,,M,0.010,N,0.019,K,A*2A
$GPGGA,183447.00,2628.00001,S,04906.86170,W,1,05,1.36,36.1,M,-1.5,M,,*7E
$GPGSA,A,3,31,22,27,32,14,,,,,,,,3.41,1.36,3.13*02
$GPGSV,3,1,09,14,61,128,41,18,08,113,25,19,59,274,,22,37,133,42*7D
$GPGSV,3,2,09,27,49,334,36,31,20,033,49,32,41,250,32,33,42,056,40*76
$GPGSV,3,3,09,39,05,082,*45
$GPGLL,2628.00001,S,04906.86170,W,183447.00,A,A*67
$GPRMC,183448.00,A,2627.99999,S,04906.86166,W,0.111,,290415,,,A*7B
$GPVTG,,T,,M,0.111,N,0.205,K,A*25
$GPGGA,183448.00,2627.99999,S,04906.86166,W,1,05,1.36,36.2,M,-1.5,M,,*72
$GPGSA,A,3,31,22,27,32,14,,,,,,,,3.41,1.36,3.13*02
$GPGSV,3,1,09,14,61,128,41,18,08,113,25,19,59,274,,22,37,133,4256,40*76
$GPGSV,3,3,09,39,05,082,*45
$GPGLL,2627.99999,S,04906.86166,W,183448.00,A,A*68
$GPRMC,183449.00,A,2627.99996,S,04906.86166,W,0.016,,290415,,,A*73
$GPVTG,,T,,M,0.016,N,0.030,K,A*27
$GPGGA,183449.00,2627.99996,S,04906.86166,W,1,05,1.36,36.1,M,-1.5,M,,*7F
$GPGSA,A,3,31,22,27,32,14,,,,,,,,3.41,1.36,3.13*02
$GPGSV,3,1,09,14,61,128,41,18,08,113,26,19,59,274,,22,37,133,42*7E
$GPGSV,3,2,09,27,49,334,36,31,20,033,,32,41,250,32,33,42,056,40*76
$GPGSV,3,3,09,39,05,082,*45
$GPGLL,2627.99996,S,04906.86166,W,183449.00,A,A*66
$GPRMC,183450.00,A,2627.99992,S,04906.86168,W,0.030,,290415,,,A*75
$GPVTG,,T,,M,0.030,N,0.055,K,A*20
$GPGGA,183450.00,2627.99992,S,04906.86168,W,1,05,1.36,36.0,M,-1.5,M,,*7C
$GPGSA,A,3,31,22,27,32,14,,,,,,,,3.41,1.36,3.13*02
$GPGSV,3,1,09,14,61,128,41,18,08,113,26,19,59,274,,22,37,133,42*7E
$GPGSV,3,2,09,27,49,334,36,31,20,033,49,32,41,250,32,33,42,056,40*76
$GPGSV,3,3,09,39,05,082,*45
$GPGLL,26.99992,S,04906.86168,W,183450.00,A,A*64
$GPRMC,183451.00,A,2627.99990,S,04906.86166,W,0.013,,290415,,,A*79
$GPVTG,,T,,M,0.013,N,0.023,K,A*20
$GPGGA,183451.00,2627.99990,S,04906.86166,W,1,05,1.36,36.1,M,-1.5,M,,*70
$GPGSA,A,3,31,22,27,32,14,,,,,,,,3.41,1.36,3.13*02
$GPGSV,3,1,09,14,61,128,41,18,08,113,26,19,59,274,,22,37,133,42*7E
$GPGSV,3,2,09,27,49,334,36,31,20,033,49,32,41,250,32,33,42,056,40*76
$GPGSV,3,3,09,39,05,082,*45
$GPGLL,2627.99990,S,04906.86166,W,183451.00,A,A*69
$GPRMC,183452.00,A,2627.99990,S,04906.86163,W,0.024,,290415,,,A*7B
$GPVTG,,T,,M,0.024,N,0.045,K,A*24
$GPGGA,183452.00,2627.99990,S,04906.86163,W,1,05,1.36,36.2,M,-1.5,M,,*75
$GPGSA,A,3,31,22,27,32,14,,,,,,,,3.41,1.36,3.13*02
$GPGSV,3,1,09,14,61,128,41,18,08,113,26,19,59,274,,22,37,133,42*7E
$GPGSV,3,2,09,27,49,334,36,31,20,033,49,32,41,250,32,33,42,056,40*76
$GPGSV,3,3,09,39,05,082,*45
$GPGLL,2627.99990,S,04906.86163,W,183452.00,A,A*6F
$GPRMC,183453.00,A,2627.99988,S,04906.86159,W,0.014,,290415,,,A*79
$GPVTG,,T,,M,0.014,N,0.026,K,A*22
$GPGGA,183453.00,2627.99988,S,04906.86159,W,1,05,1.36,36.3,M,-1.5,M,,*75
$GPGSA,A,3,31,22,27,32,14,,,,,,,,3.42,1.36,3.13*01
$GPGSV,3,1,09,14,61,128,41,18,08,113,26,19,59,274,,22,37,133,42*7E
$GPGSV,3,2,09,27,49,334,36,31,20,033,48,32,41,250,32,33,42,056,39*79
$GPGSV,3,3,09,39,05,082,*45
$GPGLL,2627.99988,S,04906.86159,W,183453.00,A,A*6E
$GPRMC,183454.00,A,2627.99985,S,04906.86156,W,0.025,,290415,,,A*7E
$GPVTG,,T,,M,0.025,N,0.046,K,A*26
$GPGGA,183454.00,2627.99985,S,04906.86156,W,1,05,1.36,36.4,M,-1.5,M,,*77
$GPGSA,A,3,31,22,27,32,14,,,,,,,,3.42,1.36,3.13*01
$GPGSV,3,1,09,14,61,128,41,18,08,113,26,19,59,274,,22,37,133,42*7E
$GPGSV,3,2,09,27,49,334,36,31,20,033,48,32,41,250,32,33,42,056,39*79
$GPGSV,3,3,09,39,05,082,*45
$GPGLL,2627.99985,S,04906.86156,W,183454.00,A,A*6B
$GPRMC,183455.00,A,2627.99981,S,04906.86157,W,0.023,,290415,,,A*7C
$GPVTG,,T,,M,0.023,N,0.043,K,A*25
$GPGGA,183455.00,2627.99981,S,04906.86157,W,1,05,1.36,36.3,M,-1.5,M,,*74
$GPGSA,A,3,31,22,27,32,PGSV,3,1,09,14,60,129,41,18,08,113,26,19,59,274,,22,37,133,43*7F
$GPGSV,3,2,09,27,49,334,36,31,20,033,49,32,41,250,32,33,42,056,40*76
$GPGSV,3,3,09,39,05,$GPRMC,183456.00,A,2627.99978,S,04906.86154,W,0.018,,290415,,,A*72
$GPVTG,,T,,M,0.018,N,0.033,K,A*2A
$GPGGA,183456.00,2627.99978,S,04906.86154,W,1,05,1.36,36.3,M,-1.5,M,,*72
$GPGSA,A,3,31,22,27,32,14,,,,,,,,3.42,1.36,3.14*06
$GPGSV,3,1,09,14,60,129,41,18,08,113,27,19,59,274,,22,37,133,43*7E
$GPGSV,3,2,09,27,49,334,36,31,20,033,49,2,41,250,32,33,42,056,40*76
$GPGSV,3,3,09,39,05,082,*45
$GPGLL,2627.99978,S,04906.86154,W,183456.00,A,A*69
$GPRMC,183457.00,A,2627.99977,S,04906.86149,W,0.163,,290415,,,A*7D
$GPVTG,,T,,M,0.163,N,0.302,K,A*26
$GPGGA,183457.00,2627.99977,S,04906.86149,W,1,05,1.36,36.4,M,-1.5,M,,*77
$GPGSA,A,3,31,22,27,32,14,,,,,,,,3.42,1.36,3.14*06
$GPGSV,3,1,09,14,60,129,41,18,08,113,27,19,59,274,,22,37,133,43*7E
$GPGSV,3,2,09,27,49,334,37,31,20,033,49,32,41,250,32,33,42,056,40*77
$GPGSV,3,3,09,39,05,082,*45
$GPGLL,26279977,S,04906.86149,W,183457.00,A,A*6B
$GPRMC,183458.00,A,2627.99976,S,04906.86141,W,0.015,,290415,,,A*7B
$GPVTG,,T,,M,0.015,N,0.028,K,A*2D
$GPGGA,183458.00,2627.99976,S,04906.86141,W,1,05,1.36,36.7,M,-1.5,M,,*72
$GPGSA,A,3,31,22,27,32,14,,,,,,,,3.42,1.36,3.14*06
$GPGSV,3,1,09,14,60,129,41,18,08,113,27,19,59,274,,22,37,133,43*7E
$GPGSV,3,2,09,27,49,334,36,31,20,033,49,32,41,250,32,33,42,056,40*76
$GPGSV,3,3,09,39,05,082,*45
$GPGLL,2627.99976,S,04906.86141,W,183458.00,A,A*6D
$GPRMC,183459.00,A,2627.99975,S,04906.86130,W,0.011,,290415,,,A*7B
$GPVTG,,T,,M,0.011,N,0.021,K,A*20
$GPGGA,183459.00,2627.99975,S,04906.86130,W,1,05,1.36,36.8,M,-1.5,M,,*79
$GPGSA,A,3,31,22,27,32,14,,,,,,,,3.42,1.36,3.14*06
$GPGSV,3,1,09,14,60,129,41,18,08,112,27,19,59,274,,22,37,133,43*7F
$GPGSV,3,2,09,27,49,334,37,31,20,033,49,32,41,250,32,33,42,056,40*77
$GPGSV,3,3,09,39,05,082,*45
$GPGLL,2627.99975,S,04906.86130,W,183459.00,A,A*69
$GPRMC,183500.00,A,2627.99974,S,04906.86123,W,0.010,,290415,,,A*74
$GPVTG,,T,,M,0.010,N,0.019,K,A*2A
$GPGGA,183500.00,2627.99974,S,04906.86123,W,1,05,1.36,37.0,M,-1.5,M,,*7E
$GPGSA,A,3,31,22,27,32,14,,,,,,,,3.42,1.36,3.14*06
$GPGSV,3,1,09,14,60,129,41,18,08,112,26,19,59,275,,22,37,133,43*7F
$GPGSV,3,2,09,27,49,334,36,31,20,033,49,32,41,250,32,33,42,056,40*76
$GPGSV,3,3,09,39,05,082,*45
$GPGLL,2627.99974,S,04906.86123,W,183500.00,A,A*67
$GPRMC,183501.00,A,2627.99973,S,04906.86116,W,0.017,,290415,,,A*73
$GPVTG,,T,,M,0.017,N,0.031,K,A*27
$GPGGA,183501.00,2627.99973,S,04906.86116,W,1,05,1.36,37.1,M,-1.5,M,,*7F
$GPGSA,A,3,31,22,27,324,,,,,,,,3.42,1.36,3.14*06
$GPGSV,3,1,09,14,60,129,41,18,08,112,26,19,59,275,,22,37,133,43*7F
$GPGSV,3,2,09,27,49,334,36,31,20,033,49,32,41,250,32,33,42,056,40*76
$GPGSV,3,3,09,39,05,082,*45
$GPGLL,2627.99973,S,04906.86116,W,183501.00,A,A*67
$GPRMC,183502.00,A,2627.99973,S,04906.86110,W,0.007,,290415,,,A*77
$GPVTG,,T,,M,0.007,N,0.013,K,A*26
$GPGGA,183502.00,2627.9991,22,27,32,14,,,,,,,,3.42,1.36,3.14*06
$GPGSV,3,1,09,14,60,129,41,18,08,112,26,19,22,37,133,43*7F
$GPGSV,3,2,09,27,49,334,36,31,20,033,49,32,41,250,31,33,42,056,40*75
$GPGSV,3,3,09,39,05,082,*45
$GPGLL,2627.99973,S,04906.86110,W,183502.00,A,A*62
$GPRMC,183503.00,A,2627.99973,S,04906.86103,W,0.030,,290415,,,A*70
$GPVTG,,T,,M,0.030,N,0.055,K,A*20
$GPGGA,183503.00,2627.99973,S,04906.86103,W,1,06,1.26,37.5,M,-1.5,M,,*7F
$GPGSA,A,3,31,22,27,32,18,14,,,,,,,2.45,1.26,2.09*05
$GPGSV,3,1,09,14,60,129,41,18,08,112,26,19,59,275,,22,37,133,43*7F
$GPGSV,3,2,09,27,49,334,36,31,20,033,49,32,41,250,31,33,6,40*75
$GPGSV,3,3,09,39,05,082,*45
$GPGLL,2627.99973,S,04906.86103,W,183503.00,A,A*61
$GPRMC,183504.00,A,2627.99973,S,04906.86098,W,0.011,,290415,,,A*77
$GPVTG,,T,,M,0.011,N,0.021,K,A*20
$GPGGA,183504.00,2627.99973,S,04906.86098,W,1,06,1.26,37.6,M,-1.5,M,,*78
$GPGSA,A,3,31,22,27,32,18,14,,,,,,,2.45,1.26,2.09*05
$GPGSV,3,1,09,14,60,129,41,18,08,112,26,19,59,275,,22,37,133,43*7F
$GPGSV,3,2,09,27,49,334,36,31,20,033,49,32,41,250,31,33,42,056,40*75
$GPGSV,3,3,09,39,05,082,*45
$GPGLL504.00,A,A*65
$GPRMC,183505.00,A,2627.99973,S,04906.86097,W,0.011,,290415,,,A*79
$GPVTG,,T,,M,0.011,N,0.021,K,A*20
$GPGGA,183505.00,2627.99973,S,04906.86097,W,1,06,1.26,37.6,M,-1.5,M,,*76
$GPGSA,A,3,31,22,27,32,18,14,,,,,,,2.45,1.26,2.10*0D
$GPGSV,3,1,09,14,60,129,41,18,08,112,26,19,59,275,,22,37,133,43*7F
$GPGSV,3,2,09,27,49,334,36,31,20,033,49,32,41,250,31,33,42,056,40*75
$GPGSV,3,3,09,39,05,082,*45
$GPGLL,2627.99973,S,04906.86097,W,183505.00,A,A*6B
$GPRMC,183506.00,A,2627.99973,S,04906.86096,W,0.019,,290415,,,A*73
$GPVTG,,T,,M,0.019,N,0.035,K,A*2D
$GPGGA,183506.00,2627.99973,S,04906.86096,W,1,06,1.26,37.6,M,-1.5,M,,*74
$GPGSA,A,3,31,22,27,308,112,27,19,59,275,,22,37,133,43*7E
$GPGSV,3,2,09,27,49,334,36,31,20,033,49,32,41,250,31,33,42,056,40*75
$GPGSV,3,3,09,39,05,082,*45
$GPGLL,2627.99973,S,04906.86096,W,183506.00,A,A*69
$GPRMC,183507.00,A,2627.99975,S,04906.86093,W,0.022,,290415,,,A*79
$GPVTG,,T,,M,0.022,N,0.040,K,A*27
$GPGGA,183507.00,2627.99975,S,04906.86093,W,1,06,1.26,37.5,M,-1.5,M,,*75
$GPGSA,A,3,31,22,27,32,18,14,,,,,,,.45,1.26,2.10*0D
$GPGSV,3,1,09,14,60,129,42,18,08,112,26,19,59,275,,22,37,133,43*7C
$GPGSV,3,2,09,27,49,334,37,31,20,033,49,32,41,250,30,33,42,056,40*75
$GPGSV,3,3,09,39,05,082,*45
$GPGLL,2627.99975,S,04906.86093,W,183507.00,A,A*6B
$GPRMC,183508.00,A,2627.99976,S,04906.86091,W,0.008,,290415,,,A*7F
$GPVTG,,T,,M,0.008,N,0.015,K,A*2F
$GPGGA,183508.00,2627.99976,S,04906.86091,W,1,06,1.26,37.5,M,-1.5,M,,*7B
$GPGSA,A,3,31,22,27,32,18,14,,,,,,,2.45,1.26,2.10*0D
$GPGSV,3,1,09,14,60,129,41,18,08,112,26,19,59,275,2,37,133,43*7F
$GPGSV,3,2,09,27,48,334,36,31,20,033,49,32,41,250,30,33,42,056,40*75
$GPGSV,3,3,09,39,05,082,*45
$GPGLL,2627.99976,S,04906.86091,W,183508.00,A,A*65
$GPRMC,183509.00,A,2627.99978,S,04906.86088,W,0.016,,290415,,,A*77
$GPVTG,,T,,M,0.016,N,0.030,K,A*27
$GPGGA,183509.00,2627.99978,S,04906.86088,W,1,06,1.26,37.4,M,-1.5,M,,*7D
$GPGSA,A,3,31,22,27,32,18,14,,,,,,,2.45,1.26,2.10*0D
$GPGSV,3,1,09,14,60,129,42,18,08,112,27,19,59,275,,22,37,133,43*7D
$GPGSV,3,2,09,27,48,334,36,31,20,033,49,32,41,250,30,388,W,183509.00,A,A*62
$GPRMC,183510.00,A,2627.99980,S,04906.86086,W,0.016,,290415,,,A*76
$GPVTG,,T,,M,0.016,N,0.030,K,A*27
$GPGGA,183510.00,2627.99980,S,04906.86086,W,1,06,1.26,37.4,M,-1.5,M,,*7C
$GPGSA,A,3,31,22,27,32,18,14,,,,,,,2.45,1.26,2.10*0D
$GPGSV,3,1,09,14,60,129,42,18,08,112,27,19,59,275,,22,37,133,43*7D
$GPGSV,3,2,09,27,48,334,36,31,20,033,49,32,41,250,29,33,42,056,40*7D
$GPGSV,3,3,09,39,05,082,*45
$GPGLL,2627.99980,S,04906.86086,W,183510.00,A,A*63
$GPRMC,183511.00,A,2627.99981,S,04906.86087,W,0.031,,290415,,,A*72
$GPVTG,,T,,M,0.031,N,0.058,K,A*2C
$GPGGA,183511.00,2627.99981,S,04906.86087,W,1,06,1.26,37.3,M,-1.5,M,,*7A
$GPGSA,A,3,31,22,27,32,18,14,,,,,,,2.45,1.26,2.10*0D
$GPGSV,3,1,09,14,60,129,41,18,08,112,26,19,59,275,,22,37,133,42*7E
$GPGSV,3,2,09,27,48,334,36,31,20,033,49,32,41,250,28,33,42,056,40*7C
$GPGSV,3,3,09,39,05,082,*45
$GPGLL,2627.99981,S,04906.86087,W,183511.00,A,A*62
$GPRMC,183512.00,A,2627.99982,S,04906.86089,W,0.041,,290415,,,A*7B
$GPVTG,,T,,M,0.041,N,0.077,K,A*26
$GPGGA,183512.00,2627.99982,S,04906.86089,W,1,06,1.26,37.2,M,-1.5,M,,*75
$GPGSA,A,3,31,22,27,32,18,14,,,,,,,2.45,1.26,2.10*0D
$GPGSV,3,1,09,14,60,129,41,18,08,112,27,19,59,275,19,22,37,133,42*77
$GPGSV,3,2,09,27,48,334,36,31,20,034,49,32,41,250,28,33,42,056,39*75
$GPGSV,3,3,09,39,05,082,*45
$GPGLL,2627.99982,S,04906.86089,W,183512.00,A,A*6C
$GPRMC,183513.00,A,2627.99984,S,04906.86089,W,0.013,,290415,,,A*7B
$GPVTG,,T,,M,0.013,N,0.024,K,A*27
$GPGGA,183513.00,2627.99984,S,04906.860891,06,1.26,37.2,M,-1.5,M,,*72
$GPGSA,A,3,31,22,27,32,18,14,,,,,,,2.45,1.26,2.10*0D
$GPGSV,3,1,09,14,60,129,42,18,08,112,27,19,59,275,19,22,37,133,42*74
$GPGSV,3,2,09,27,48,334,36,31,20,034,49,32,41,250,28,33,42,056,39*75
$183513.00,A,A*6B
$GPRMC,183514.00,A,2627.99986,S,04906.86087,W,0.010,,290415,,,A*73
$GPVTG,,T,,M,0.010,N,0.018,K,A*2B
$GPGGA,183514.00,2627.99986,S,04906.86087,W,1,06,1.26,37.3,M,-1.5,M,,*78
$GPGSA,A,3,31,22,27,32,18,14,,,,,,,2.45,1.26,2.10*0D
$GPGSV,3,1,09,14,60,129,42,18,08,112,27,19,59,27,3,2,09,27,48,334,36,31,20,034,49,32,41,250,28,33,42,056,39*75
$GPGSV,3,3,09,39,05,082,*45
$GPGLL,2627.99986,S,04906.86087,W,183514.00,A,A*60
$GPRMC,183515.00,A,2627.99989,S,04906.86086,W,0.010,,290415,,,A*7C
$GPVTG,,T,,M,0.010,N,0.019,K,A*2A
$GPGGA,183515.00,2627.99989,S,04906.86086,W,1,06,1.26,37.3,M,-1.5,M,,*77
$GPGSA,A,3,31,22,27,32,18,14,,,,,,,2.45,1.26,2.10*0D
$GPGSV,3,1,09,14,60,129,42,18,08,112,27,19,59,275,19,22,37,133,42*74
$GPGSV,3,2,09,27,48,334,36,31,20,034,49,32,41250,28,33,42,056,40*7B
$GPGSV,3,3,09,39,05,082,*45
$GPGLL,2627.99989,S,04906.86086,W,183515.00,A,A*6F
$GPRMC,183516.00,A,2627.99990,S,04906.86088,W,0.013,,290415,,,A*7A
$GPVTG,,T,,M,0.013,N,0.023,K,A*20
$GPGGA,183516.00,2627.99990,S,04906.86088,W,1,06,1.26,37.3,M,-1.5,M,,*72
$GPGSA,A,3,31,22,27,32,18,14,,,,,,,2.45,1.26,2.10*0D
$GPGSV,3,1,09,14,60,129,41,18,08,112,27,19,59,275,20,22,37,133,42*7D
$GPGSV,3,2,09,27,48,334,35,31,20,034,49,32,41,250,28,33,42,056,39*76
$GPGSV,3,3,09,39,05,082,*45
$GLL,2627.99990,S,04906.86088,W,183516.00,A,A*6A
$GPRMC,183517.00,A,2627.99990,S,04906.86088,W,0.023,,290415,,,A*78
$GPVTG,,T,,M,0.023,N,0.043,K,A*25
$GPGGA,183517.00,2627.99990,S,04906.86088,W,1,06,1.26,37.3,M,-1.5,M,,*73
$GPGSA,A,3,31,22,27,32,18,14,,,,,,,2.45,1.26,2.10*0D
$GPGSV,3,1,09,14,60,129,42,18,08,112,26,19,59,275,21,22,37,133,43*7F
$GPGSV,3,2,09,27,48,334,36,31,20,034,49,32,41,250,28,33,42,056,39*75
$GPGSV,3,3,09,39,05,082,*45
$GPGLL,2627.99990,S,04906.86088,W,183517.00,A,A*6B
$GPRMC,183518.00,A,2627.99991,S,04906.86088,W,0.016,,290415,,,A*70
$GPVTG,,T,,M,0.016,N,0.029,K,A*2F
$GPGGA,183518.00,2627.99991,S,04906.86088,W,1,06,1.26,37.3,M,-1.5,M,,*7D
$GPGSA,A,3,31,22,27,32,18,14,,,,,,,2.45,1.26,2.10*0D
$GPGSV,3,1,09,14,60,129,42,18,08,112,26,19,59,275,21,22,37,133,43*7F
$GPGSV,3,2,09,27,48,334,36,31,20,034,49,32,41,250,28,33,42,056,40*7B
$GPGSV,3,3,09,39,05,082,*45
$GPGLL,2627.99991,S,04906.86088,W,183518.00,A,A*65
$GPRMC,183519.00,A,2627.99993,S,04906.86085,W,0.031,,290415,,,A*7B
$GPVTG,,T,,M,0.031,N,0.057,K,A*23
$GPGGA,183519.00,2627.99993,S,04906.86085,W,1,06,1.26,37.4,M,-1.5,M,,*74
$GPGSA,A,3,31,22,27,32,18,14,,,,,,,2.45,1.26,2.10*0D
$GPGSV,3,1,09,14,60,129,42,18,08,112,26,19,59,275,22,22,37,133,42*7D
$GPGSV,3,2,09,27,48,334,36,31,20,034,49,32,41,250,28,33,42,056,40*7B
$GPGSV,3,3,09,39,05,082,*45
$GPGLL,2627.99993,S,04906.86085,W,183519.00,A,A*6B
$GPRMC,183520.00,A,2627.99995,S,04906.86082,W,0.020,,290415,,,A*70
$GPVTG,,T,,M,0.020,N,0.037,K,A*25
$GPGGA,183520.00,2627.99995,14,,,,,,,2.45,1.26,2.10*0D
$GPGSV,3,1,09,14,60,129,42,18,08,112,26,19,59,275,23,22,37,133,43*7D
$GPGSV,3,2,09,27,48,334,36,31,20,034,49,32,41,250,28,33,42,056,40*7B
$GPGSV,3,3,09,39,05,082,*45
$GPGLL,2627.99995,S,04906.86082,W,183520.00,A,A*60
$GPRMC,183521.00,A,2627.99995,S,04906.86083,W,0.022,,290415,,,A*72
$GPVTG,,T,,M,0.022,N,0.041,K,A*26
$GPGGA,183521.00,2627.99995,S,04906.86083,W,1,06,1.26,37.4,M,-1.5,M,,*7F
$GPGSA,A,3,31,22,27,32,18,14,,,,,,,2.45,1.26,2.10*0D
$GPGSV,3,1,09,14,60,129,42,18,08,112,26,19,59,275,37,133,43*7D
$GPGSV,3,2,09,27,48,334,36,31,20,034,49,32,41,250,28,33,42,056,40*7B
$GPGSV,3,3,09,39,05,082,*45
$GPGLL,2627.99995,S,04906.86083,W,183521.00,A,A*60
$GPRMC,183522.00,A,2627.99995,S,04906.86082,W,0.038,,290415,,,A*7B
$GPVTG,,T,,M,0.038,N,0.071,K,A*2E
$GPGGA,183522.00,2627.99995,S,04906.86082,W,1,06,1.26,37.3,M,-1.5,M,,*7A
$GPGSA,A,3,31,22,27,32,18,14,,,,,,,2.45,1.26,2.10*0D
$GPGSV,3,1,09,14,60,129,42,18,08,112,27,19,59,275,24,22,37,133,43*7B
$GPGSV,3,2,09,27,48,334,36,31,20,034,49,32,4128,33,42,056,40*7B
$GPGSV,3,3,09,39,05,082,*45
$GPGLL,2627.99995,S,04906.86082,W,183522.00,A,A*62
$GPRMC,183523.00,A,2627.99996,S,04906.86078,W,0.012,,290415,,,A*74
$GPVTG,,T,,M,0.012,N,0.022,K,A*20
$GPGGA,183523.00,2627.99996,S,04906.86078,W,1,06,1.26,37.4,M,-1.5,M,,*7A
$GPGSA,A,3,31,22,27,32,18,14,,,,,,,2.45,1.26,2.10*0D
$GPGSV,3,1,09,14,60,129,42,18,08,112,27,19,59,275,25,22,37,133,43*7A
$GPGSV,3,2,09,27,48,334,36,31,20,034,49,32,41,250,28,33,42,056,40*7B
$GPGSV,3,3,09,39,05,082,*45
$GPGLL,26523.00,A,A*65
$GPRMC,183524.00,A,2627.99998,S,04906.86072,W,0.017,,290415,,,A*72
$GP.99998,S,04906.86072,W,1,06,1.26,37.6,M,-1.5,M,,*7B
$GPGSA,A,3,31,22,27,32,18,14,,,,,,,2.45,1.26,2.10*0D
$GPGSV,3,1,09,14,60,129,42,18,08,112,27,19,59,275,25,22,37,133,43*7A
$GPGSV,3,2,09,27,48,334,36,31,20,034,49,32,41,250,28,33,42,056,40*7B
$GPGSV,3,3,09,39,05,082,*45
$GPGLL,2627.99998,S,04906.86072,W,183524.00,A,A*66
$GPRMC,183525.00,A,2628.00000,S,04906.86070,W,0.020,,290415,,,A*72
$GPVTG,,T,,M,0.020,N,0.037,K,A*25
$GPGGA,183525.00,2628.00000,S,04906.86070,W,1,06,1.26,37.5,M,-1.5,M,,*7C
$GPGSA,A,3,31,22,27,32,18,14,,,,,,,2.45,1.26,2.10*0D
$GPGSV,3,1,09,14,60,129,42,18,08,112,27,19,59,275,25,22,37,133,42*7B
$GPGSV,3,2,09,27,48,334,36,31,20,034,49,32,41,250,28,33,42,056,40*7B
$GPGSV,3,3,09,39,05,082,*45
$GPGLL,2628.00000,S,04906.86070,W,183525.00,A,A*62
$GPRMC,183526.00,A,2628.00000,S,04906.86075,W,0.055,,290415,,,A*76
$GPVTG,,T,,M,0.055,N,0.101,K,A*23
$GPGGA,183526.00,2628.00000,S,04906.86075,W,1,06,1.26,37.3,M,-1.5,M,,*7C
$GPGSA,A,3,31,22,27,32,18,14,,,,,,,2.45,1.26,2.10*0D
$GPGSV,3,1,09,14,60,129,42,18,08,112,27,19,59,275,25,22,37,133,43*7A
$GPGSV,3,2,09,27,48,334,36,31,20,034,50,32,41,250,28,33,42,056,40*73
$GPGSV,3,3,09,39,05,082,*45
$GPGLL,2628.00000,S,04906.86075,W,183526.00,A,A*64
$GPRMC,183527.00,A,2628.00001,S,04906.86074,W,0.007,,290415,,,A*70
$GPVTG,,T,,M,0.007,N,0.013,K,A*26
$GPGGA,183527.00,2628.00001,S,04906.86074,W,1,06,1.26,37.4,M,-1.5,M,,*7A
$GPGSA,A,3,31,22,27,32,19,275,24,22,37,133,43*7A
$GPGSV,3,2,09,27,48,334,36,31,20,034,49,32,41,250,28,33,42,056,40*7B
$GPGSV,3,3,09,39,05,082,*45
$GPGLL,2628.00001,S,04906.86074,W,183527.00,A,A*65
$GPRMC,183528.00,A,2628.00003,S,04906.86071,W,0.035,,290415,,,A*79
$GPVTG,,T,,M,0.035,N,0.064,K,A*27
$GPGGA,183528.00,2628.00003,S,04906.86071,W,1,06,1.26,37.5,M,-1.5,M,,*73
$GPGSA,A,3,31,22,27,32,18,14,,,,,,,2.45,1.26,2.10*0D
$GPGSV,3,1,09,14,60,129,42,18,08,112,26,19,59,275,24,22,37,133,42*7B
$GPGSV,3,2,09,27,48,334,36,31,20,034,49,341,250,28,33,42,056,40*7B
$GPGSV,3,3,09,39,05,082,*45
$GPGLL,2628.00003,S,04906.86071,W,183528.00,A,A*6D
$GPRMC,183529.00,A,2628.00004,S,04906.86070,W,0.009,,290415,,,A*71
$GPVTG,,T,,M,0.009,N,0.017,K,A*2C
$GPGGA,183529.00,2628.00004,S,04906.86070,W,1,06,1.26,37.6,M,-1.5,M,,*77
$GPGSA,A,3,31,22,27,32,18,14,,,,,,,2.45,1.26,2.10*0D
$GPGSV,3,1,09,14,60,129,41,18,08,112,26,19,59,275,24,22,37,133,43*79
$GPGSV,3,2,09,27,48,334,37,31,20,034,50,32,41,250,28,33,42,056,40*72
$GPGSV,3,3,09,39,05,082,*45
$GPGLL,2628.0000S,04906.86070,W,183529.00,A,A*6A
$GPRMC,183530.00,A,2628.00006,S,04906.86069,W,0.012,,290415,,,A*79
$GPVTG,,T,,M,0.012,N,0.023,K,A*21
$GPGGA,183530.00,2628.00006,S,04906.86069,W,1,06,1.26,37.5,M,-1.5,M,,*76
$GPGSA,A,3,31,22,27,32,18,14,,,,,,,2.45,1.26,2.10*0D
$GPGSV,3,1,09,14,60,129,42,18,08,112,26,19,59,275,23,22,37,133,43*7D
$GPGSV,3,2,09,27,48,334,37,31,20,034,50,32,41,250,28,33,42,056,40*72
$GPGSV,3,3,09,39,05,082,*45
$GPGLL,2628.00006,$GPRMC,183531.00,A,2628.00007,S,04906.86067,W,0.027,,290415,,,A*71
$GPVTG,,T,,M,0.027,N,0.050,K,A*23
$GPGGA,183531.00,2628.00007,S,04906.86067,W,1,06,1.26,37.4,M,-1.5,M,,*79
$GPGSA,A,3,31,22,27,32,18,14,,,,,,,2.45,1.26,2.10*0D
$GPGSV,3,1,09,14,60,129,42,18,08,112,27,19,59,275,24,22,37,133,43*7B
$GPGSV,3,2,09,27,48,334,37,31,20,034,50,32,41,250,28,33,42,056,40*72
$GPGSV,3,3,09,39,05,082,*45
$GPGLL,2628.00007,S,04906.86067,W,183531.00,A,A*66
$GPRMC,183532.00,A,2628.00009,S,04906.86065,W,0.015,,290415,,,A*7F
$GPVTG,,T,,M,0.015,N,0.028,K,A*2D
$GPGGA,183532.00,2628.00009,S,04906.86065,W,1,06,1.26,37.4,M,-1.5,M,,*76
$GPGSA,A,3,31,22,27,32,18,14,,,,,,,2.45,1.26,2.10*0D
$GPGSV,3,1,09,14,60,129,42,18,08,112,27,19,59,275,24,22,37,133,43*7B
$GPGSV,3,2,09,27,48,334,37,31,20,034,50,32,41,250,28,33,42,056,40*72
$GPGSV,3,3,09,39,05,082,*45
$GPGLL,2628.00009,S,04906.86065,W,183532.00,A,A*69
$GPRMC,183533.00,A,2628.00013,S,04906.86067,W,0.227,197.33,290415,,,A*65
$GPVTG,197.33,T,,M,0.227,N,0.421,K,A*32
$GPGGA,183533.00,2628.00013,S,04906.86067,W,1,06,1.26,37.4,M,-1.5,M,,*7E
$GPGSA,A,1.26,2.10*0D
$GPGSV,3,1,09,14,60,129,42,18,08,112,27,19,59,275,24,22,37,133,43*7B
$GPGSV,3,2,09,27,48,334,37,31,20,034,50,32,41,250,28,33,42,056,40*72
$GPGSV,3,3,09,39,05,082,*45
$GPGLL,2628.00013,S,04906.86067,W,183533.00,A,A*61
$GPRMC,183534.00,A,2628.00015,S,04906.86068,W,0.070,,290415,,,A*7A
$GPVTG,,T,,M,0.070,N,0.130,K,A*26
$GPGGA,183534.00,2628.00015,S,04906.86068,W,1,06,1.26,37.4,M,-1.5,M,,*70
$GPGSA,A,3,31,22,27,32,18,14,,,,,,,2.45,1.26,2.10*0D
$GPGSV,3,1,09,14,60,129,42,18,08,112,27,19,59,275,4,22,37,133,43*7B
$GPGSV,3,2,09,27,48,334,37,31,20,034,50,32,41,250,28,33,42,056,8,W,183534.00,A,A*6F
$GPRMC,183535.00,A,2628.00016,S,04906.86067,W,0.042,,290415,,,A*76
$GPVTG,,T,,M,0.042,N,0.077,K,A*25
$GPGGA,183535.00,2628.00016,S,04906.86067,W,1,06,1.26,37.4,M,-1.5,M,,*7D
$GPGSA,A,3,31,22,27,32,18,14,,,,,,,2.45,1.26,2.10*0D
$GPGSV,3,1,09,14,60,129,42,18,08,112,27,19,59,275,24,22,37,133,43*7B
$GPGSV,3,2,09,27,48,334,37,31,20,034,50,32,41,250,28,3,42,056,40*72
$GPGSV,3,3,09,39,05,082,*45
$GPGLL,2628.00016,S,04906.86067,W,183535.00,A,A*62
$GPRMC,183536.00,A,2628.00016,S,04906.86065,W,0.035,,290415,,,A*77
$GPVTG,,T,,M,0.035,N,0.065,K,A*26
$GPGGA,183536.00,2628.00016,S,04906.86065,W,1,06,1.26,37.4,M,-1.5,M,,*7C
$GPGSA,A,3,31,22,27,32,18,14,,,,,,,2.45,1.26,2.10*0D
$GPGSV,3,1,09,14,60,129,41,18,08,112,27,19,59,275,25,22,37,133,43*79
$GPGSV,3,2,09,27,48,334,37,31,20,034,50,32,41,250,28,33,42,056,40*72
$GPGSV,3,3,09,39,05,082,*45
$GPGLL,2628.00016,S,04906.065,W,183536.00,A,A*63
$GPRMC,183537.00,A,2628.00016,S,04906.86062,W,0.015,,290415,,,A*73
$GPVTG,,T,,M,0.015,N,0.027,K,A*22
$GPGGA,183537.00,2628.00016,S,04906.86062,W,1,06,1.26,37.6,M,-1.5,M,,*78
$GPGSA,A,3,31,22,27,32,18,14,,,,,,,2.45,1.26,2.10*0D
$GPGSV,3,1,09,14,60,129,41,18,08,112,27,19,59,275,25,22,37,133,43*79
$GPGSV,3,2,09,27,48,334,37,31,20,034,50,32,41,250,28,33,42,056,40*72
$GPGSV,3,3,09,39,05,082,*45
$GPGLL,2628.00016,S,04906.86062,W,183537.00,A,A*65
$GPRMC,183538.00,A,2628.00017,S,04906.86060,W,0.026,,290415,,,A*7F
$GPVTG,,T,,M,0.026,N,0.049,K,A*2A
$GPGGA,183538.00,2628.00017,S,04906.86060,W,1,06,1.26,37.6,M,-1.5,M,,*74
$GPGSA,A,3,31,22,27,32,18,14,,,,,,,2.45,1.26,2.10*0D
$GPGSV,3,1,09,14,60,129,41,18,08,112,27,19,59,275,25,22,37,133,43*79
$GPGSV,3,2,09,27,48,334,37,31,20,034,50,32,41,250,28,33,42,056,40*72
$GPGSV,3,3,09,39,05,082,*45
$GPGLL,2628.00017,S,04906.86060,W,183538.00,A,A*69
$GPRMC,183539.00,A,2628.00018,S,04906.86059,W,0.031,,290415,,,A*7D
$GPVTG,,T,,M,0.031,N,0.057,K,A*23
$GPGGA,183539.00,2628.00018,S,04906.86059,W,1,06,1.26,37.5,M,-1.5,M,,*73
$GPGSA,A,3,31,22,27,32,18,14,,,,,,,2.46,1.26,2.10*0E
$GPGSV,3,1,09,14,60,129,41,18,08,112,26,19,59,275,25,22,37,133,43*78
$GPGSV,3,2,09,27,48,334,37,31,20,034,50,32,41,250,28,33,42,056,40*72
$GPGSV,3,3,09,39,05,082,*45
$GPGLL,2628.00018,S,04906.86059,W,183539.00,A,A*6D
$GPRMC,183540.00,A,2628.00018,S,04906.86059,W,0.029,,290415,,,A*7A
$GPVTG,,T,,M,0.029,N,0.054,K,A*29
$GPGGA,183540.00,2628.00018,S,04906.8605,W,1,06,1.26,37.5,M,-1.5,M,,*7D
$GPGSA,A,3,31,22,27,32,18,14,,,,,,,2.46,1.26,2.10$GPRMC,183541.00,A,2628.00019,S,04906.86058,W,0.027,,290415,,,A*75
$GPVTG,,T,,M,0.027,N,0.050,K,A*23
$GPGGA,183541.00,2628.00019,S,04906.86058,W,1,06,1.26,37.6,M,-1.5,M,,*7F
$GPGSA,A,3,31,22,27,32,18,14,,,,,,,2.46,1.26,2.11*0F
$GPGSV,3,1,09,14,60,129,41,18,08,112,27,19,59,275,24,22,37,133,43*78
$GPGSV,3,2,09,27,48,334,37,31,20,034,50,32,41,250,28,33,42,056,40*72
$GPGSV,3,3,09,39,05,082,*45
$GPGLL,2628.00019,S,049068,W,183541.00,A,A*62
$GPRMC,183542.00,A,2628.00020,S,04906.86057,W,0.019,,290415,,,A*7E
$GPVTG,,T,,M,0.019,N,0.035,K,A*2D
$GPGGA,183542.00,2628.00020,S,04906.86057,W,1,06,1.26,37.7,M,-1.5,M,,*78
$GPGSA,A,3,31,22,27,32,18,14,,,,,,,2.46,1.26,2.11*0F
$GPGSV,3,1,09,14,60,129,41,18,08,112,27,19,59,275,23,22,37,133,43*7F
$GPGSV,3,2,09,27,48,334,37,31,20,034,50,32,41,250,28,33,42,056,40*72
$GPGSV,3,3,09,39,05,082,*45
$GPGLL,2628.00020,S,04906.86057,W,183542.00,A,A*64
$GPRMC,183543.00,A,2628.00020,S,04906.86061,W,0.034,,290415,,,A*75
$GPVTG,,T,,M,0.034,N,0.063,K,A*21
$GPGGA,183543.00,2628.00020,S,04906.86061,W,1,06,1.26,37.7,M,-1.5,M,,*7C
$GPGSA,A,3,31,22,27,32,18,14,,,,,,,2.46,1.26,2.11*0F
$GPGSV,3,1,09,14,60,129,41,18,08,112,27,19,59,275,23,22,37,133,43*7F
$GPGSV,3,2,09,27,48,334,36,31,20,034,50,32,41,250,28,33,42,056,40*73
$GPGSV,3,3,09,39,05,082,*45
$GPGLL,2628.00020,S,04906.86061,W,183543.00,A,A*60
$GPRMC,183544.00,A,2628.00020,S,04906.86064,W,0.034,,290415,,,A*77
$GPVTG,,T,,M,0.034,N,0.064,K,A*26
$GPGGA,183544.00,2628.00020,S,04906.86064,W,1,06,1.26,37.6,M,-1.5,M,,*7F
$GPGSA,A,3,31,22,27,32,18,14,,,,,,,2.46,1.26,2.11*0F
$GPGSV,3,1,09,14,60,129,41,18,08,112,27,19,59,275,24,22,37,133,43*78
$GPGSV,3,2,09,27,48,334,36,31,20,034,50,32,41,250,28,33,42,056,40*73
$GPGSV,3,3,09,39,05,082,*45
$GPGLL,2628.00020,S,04906.86064,W,183544.00,A,A*62
$GPRMC,183545.00,A,2628.00020,S,04906.86061,W,0.038,,290415,,,A*7F
$GPVTG,,T,,M,0.038,N,0.070,K,A*2F
$GPGGA,183545.00,2628.00020,S,04906.86061,W,1,06,1.26,37.8,M,-1.5,M,,*75
$GPGSA,A,3,31,22,27,32,18,1,,,,,,,2.46,1.26,2.11*0F
$GPGSV,3,1,09,14,60,129,41,18,08,112,28,19,59,275,24,22,36,132,43*77
$GPGSV,3,2,09,27,48,334,37,31,20,034,50,32,41,250,29,33,42,056,40*73
$GPGSV,3,3,09,39,05,082,*45
$GPGLL,2628.00020,S,04906.86061,W,183545.00,A,A*66
$GPRMC,183546.00,A,2628.00021,S,04906.86060,W,0.014,,290415,,,A*72
$GPVTG,,T,,M,0.014,N,0.026,K,A*22
$GPGGA,183546.00,2628.00021,S,04906.86060,W,1,06,1.26,37.9,M,-1.5,M,,*77
$GPGSA,A,3,31,22,27,32,18,14,,,,,,,2.46,1.26,2.11*0F
$GPGSV,3,1,09,14,60,129,41,18,08,112,28,19,59,5,24,22,36,132,43*77
$GPGSV,3,2,09,27,48,334,37,31,20,034,50,32,41,250,28,33,42,056,40*72
$GPGSV,3,3,09,39,05,082,*45
$GPGLL,2628.00021,S,04906.86060,W,183546.00,A,A*65
$GPRMC,183547.00,A,2628.00021,S,04906.86060,W,0.035,,290415,,,A*70
$GPVTG,,T,,M,0.035,N,0.064,K,A*27
$GPGGA,183547.00,2628.00021,S,04906.86060,W,1,06,1.26,38.0,M,-1.5,M,,*70
$GPGSA,A,3,31,22,27,32,18,14,,,,,,,2.46,1.26,2.11*0F
$GPGSV,3,1,09,14,60,129,41,18,08,112,28,19,59,275,24,22,36,132,43*77
$GPGSV,3,2,09,27,48,334,37,31,20,034,50,32,,250,28,33,42,056,40*72
$GPGSV,3,3,09,39,05,082,*45
$GPGLL,2628.00021,S,04906.86060,W,183547.00,A,A*64
$GPRMC,183548.00,A,2628.00021,S,04906.86062,W,0.041,,290415,,,A*7E
$G.00021,S,04906.86062,W,1,06,1.26,38.0,M,-1.5,M,,*7D
$GPGSA,A,3,31,22,27,32,18,14,,,,,,,2.46,1.26,2.11*0F
$GPGSV,3,1,09,14,60,129,40,18,08,112,27,19,59,275,24,22,36,132,43*79
$GPGSV,3,2,09,27,48,334,36,31,20,034,50,32,41,250,28,33,42,056,39*7D
$GPGSV,3,3,09,39,05,082,*45
