$GPRMC,,V,,,,,,,,,,N*53
$GPVTG,,,,,,,,,N*30
$GPGGA,,,,,,0,00,99GSA,A,1,,,,,,,,,,,,,99.99,99.99,99.99*30
$GPGSV,1,1,00*79
$GPGLL,,,,,,V,N*64
$G,ANTSTATUS=INIT*25
$GPRMC,,V,,,,,,,,,,N*53
$GPVTG,,,,,,,,,N*30
$GPGGA,,,,,,0,00,99.99,,,,,,*48
$GPGSA,A,1,,,,,,,,,,,,,99.99,99.99,99.99*30
$GPGSV,1,1,01,33,,,40*7GLL,,,,,,V,N*64
$GPTXT,01,01,02,ANTSTATUS=OK*3B
$GPRMC,,V,,,,,,,,,,N*53
$GPVTG,,,,,,,,,N*30
$GPGGA,,,,,,0,00,99.99,,,,,,*48
$GPGSA,A,1,,,,,,,,,,,,,99.99,99.99,99.99*30
$GPGSV,1,1,01,33,,,40*PGLL,,,,,,V,N*64
$GPRMC,,V,,,,,,,,,,N*53
$GPVTG,,,,,,,,,N*30
$GPGGA,,,,,,0,00,99.99,,,,,,*48
$GPGSA,A,1,,,,,,,,,,,,,99.99,99.99,99.99*30
$GPGSV,1,1,01,3GPGLL,,,,,,V,N*64
$GPRMC,,V,,,,,,,,,,N*53
$GPVTG,,,,,,,,,N*30
$GPGGA,,,,,,0,00,99.99,,,,,,*48
$GPGSA,A,1,,,,,,,,,,,,,99.99,99.99,99.99*30
$GPGSV,1,1,01,33,,,41*7DLL,,,,,,V,N*64
$GPRMC,,V,,,,,,,,,,N*53
$GPVTG,,,,,,,,,N*30
$GPGGA,,,,,,0,00,99.99,,,,,,*48
$GPGSA,A,1,,,,,,,,,,,,,99.99,99.99,99.99*30
$GPGSV,1,1,01
$GPGLL,,,,,,V,N*64
$GPRMC,,V,,,,,,,,,,N*53
$GPVTG,,,,,,,,,N*30
$GPGGA,,,,,,0,00,99.99,,,,,,*48
$GPGSA,A,1,,,,,,,,,,,,,99.99,99.99,99.99*30
$GPGSV,1,1,02GPGLL,,,,,,V,N*64
$GPRMC,,V,,,,,,,,,,N*53
$GPVTG,,,,,,,,,N*30
$GPGGA,,,,,,0,00,9999,,,,,,*48
$GPGSA,A,1,,,,,,,,,,,,,99.99,99.99,99.99*30
$GPGSV,1,1,02,31,,,42,33$GPRMC,,V,,,,,,,,,,N*53
$GPVTG,,,,,,,,,N*30
$GPGGA,,,,,,0,00,99.99,,,,,,*48
$GPGSA,A,1,,,,,,,,,,,,,99.99,99.99,99.99*30
$GPGSV,1,1,02,,43*79
$GPGLL,,,,,,V,N*64
$GPRMC,,V,,,,,,,,,,N*53
$GPVTG,,,,,,,,,N*30
$GPGGA,,,,,,0,00,99.99,,,,,,*48
$GPGSA,A,1,,,,,,,,,,,,,99.99,99.99,99.99*30
$GPGSV,1,1,02GPGLL,,,,,,V,N*64
$GPRMC,,V,,,,,,,,,,N*53
$GPVTG,,,,,,,,,N*30
$GPGGA,,,,,,0,00,99.99,,,,,,*48
$GPGSA,A,1,,,,,,,,,,,,,99.99,99.99,99.99*30
$GPGSV,1,1,02,31,,,44,3*7E
$GPGLL,,,,,,V,N*64
$GPRMC,,V,,,,,,,,,,N*53
$GPVTG,,,,,,,,,N*30
$GPGGA,,,,,,0,00,99.99,,,,,,*48
$GPGSA,A,1,,,,,,,,,,,,,99.99,99.99,99.99*30
$GPGSV,1,1,02,31,,,44,3*7E
$GPGLL,,,,,,V,N*64
$GPRMC,,V,,,,,,,,,,N*53
$GPVTG,,,,,,,,,N*30
$GPGGA,,,,,,0,00,99.99,,,,,,*48
$GPGSA,A,1,,,,,,,,,,,,,99.99,99.99,99.99*30
$GPGSV,1,1,04,13,,,28,14,,,43*77
$GPGLL,,,,,,V,N*64
$GPRMC,,V,,,,,,,,,,N*53
$GPVTG,,,,,,,,,N*30
$GPGGA,,,,,,0,00,99.99,,,,,,*48
$GPGSA,A,1,,,,,,,,,,,,,99.99,99.99,99.99*30
$GPGSV,1,1,04,14,,,30,9,31,,,43,33,,,43*75
$GPGLL,,,,,,V,N*64
$GPRMC,,V,,,,,,,,,,N*53
$GPVTG,,,,,,,,,N*30
$GPGGA,,,,,,0,00,99.99,,,,,,*48
$GPGSA,A,1,,,,,,,,,,,,,99.99,99.99,99.99*30
$GPGSV,1,1,04,14,,,29,$GPRMC,,V,,,,,,,,,,N*53
$GPVTG,,,,,,,,,N*30
$GPGGA,,,,,,0,00,99.99,,,,,,*48
$GPGSA,A,1,,,,,,,,,,,,,99.99,99.99,99.99*30
$GPGSV,1,1,04,,33,,,43*78
$GPGLL,,,,,,V,N*64
$GPRMC,,V,,,,,,,,,,N*53
$GPVTG,,,,,,,,,N*30
$GPGGA,,,,,,0,00,99.99,,,,,,*48
$GPGSA,A,1,,,,,,,,,,,,,99.99,99.99,99.99*30
$GPGSV,1,1,04,32,31,,,43,33,,,43*77
$GPGLL,,,,,,V,N*64
$GPRMC,,V,,,,,,,,,,N*53
$GPVTG,,,,,,,,,N*30
$GPGGA,,,,,,0,00,99.99,,,,,,*48
$GPGSA,A,1,,,,,,,,,,,,,99.99,99.99,99.99*30
$GPGSV,1,1,04,32,31,,,44,33,,,43*70
$GPGLL,,,,,,V,N*64
$GPRMC,201929.00,V,,,,,,,,,,N*7C
$GPVTG,,,,,,,,,N*30
$GPGGA,201929.00,,,,,0,00,99.99,,,,,,*67
$GPGSA,A,1,,,,,,,,,,,,,99.99,99.99,99.99*,1,04,14,,,25,19,,,32,31,,,44,33,,,43*73
$GPGLL,,,,,201929.00,V,N*4B
$GPRMC,201930.00,V,,,,,,,,,,N*74
$GPVTG,,,,,,,,,N*30
$GPGGA,201930.00,,,,,0,00,99.99,,,,,,*6F
$GPGSA,A,1,,,,,,,,,,,,,99.99,99.99,99.99*30
$GPGSV,1,1,04,14,,,25,19,,,33,31,,,45,33,,,43*73
$GPGLL,,,,,201930.00,V,N*43
$GPRMC,201931.00,V,,,,,,,,,,N*75
$GPVTG,,,,,,,,,N*30
$GPGGA,201931.00,,,,,0,00,99.99,,,,,,*6E
$GPGSA,A,1,,,,,,,,,,,,,99.99,99.99,99.99*30
$GPGSV,1,1,04,14,,,25,19,,,34,31,,,45,33,,,44*73
$GPGLL,,,,,201931$GPRMC,201932.00,V,,,,,,,,,,N*76
$GPVTG,,,,,,,,,N*30
$GPGGA,201932.00,,,,,0,00,99.99,,,,,,*6D
$GPGSA,A,1,,,,,,,,,,,,,99.99,99.99,99.99*30
1,1,04,14,,,24,19,,,32,31,,,43,33,,,42*74
$GPGLL,,,,,201932.00,V,N*41
$GPRMC,201933.00,V,,,,,,,,,,N*77
$GPVTG,,,,,,,,,N*30
$GPGGA,20,,,,,,99.99,99.99,99.99*30
$GPGSV,1,1,04,14,,,23,19,,,33,31,,,44,33,,,43*74
$GPG1933.00,V,N*40
$GPRMC,201934.00,V,,,,,,,,,,N*70
$GPVTG,,,,,,,,,N*30
$GPGGA,201934.00,,,,,0,00,99.99,,,,,,*6B
$GPGSA,A,1,,,,,,,,,,,,,99.99,99.99,99.99*30
,,,,,201934.00,V,N*47
$GPRMC,201935.00,V,,,,,,,,,,N*71
$GPVTG,,,,,,,,,N*30
$GPGGA,201935.,,,0,00,99.99,,,,,,*6A
$GPGSA,A,1,,,,,,,,,,,,,99.99,99.99,99.99*30
$GPGSV,1,1,0431,,,43,33,,,43*74
$GPGLL,,,,,201935.00,V,N*46
$GPRMC,201936.00,V,,,,,,,,,,N*72
$GPVTG,,,,,,,,,N*30
$GPGGA,201936.,,,0,00,99.99,,,,,,*69
$GPGSA,A,1,,,,,,,,,,,,,99.99,99.99,99.99*30
$GPGSV,1,1,0431,,,44,33,,,43*74
$GPGLL,,,,,201936.00,V,N*45
$GPRMC,201937.00,V,,,,,,,,,,N*73
$GPVTG,,,,,,,,,N*30
$GPGGA,2019,,0,00,99.99,,,,,,*68
$GPGSA,A,1,,,,,,,,,,,,,99.99,99.99,99.99*30
$GPGSV,1,1,04,$GPRMC,201938.00,V,,,,,,,,,,N*7C
$GPVTG,,,,,,,,,N*30
$GPGGA,201938.,,0,00,99.99,,,,,,*67
$GPGSA,A,1,,,,,,,,,,,,,99.99,99.99,99.99*30
$GPGSV,1,1,04,31,,,44,33,,,43*7C
$GPGLL,,,,,201938.00,V,N*4B
$GPRMC,201939.00,V,,,,,,,,,,N*7D
$GPVTG,,,,,,,,,N*30
$GPGGA,201939.0,0,00,99.99,,,,,,*66
$GPGSA,A,1,,,,,,,,,,,,,99.99,99.99,99.99*30
$GPGSV,2,1,05,0,,,34,31,,,44*75
$GPGSV,2,2,05,33,,,43*7B
$GPGLL,,,,,201939.00,V,N*4A
$GPRMC,201940.00,V,,,,,,,,,,N*73
$GPVTG,,,,,,,,,N*30
$GPGGA,20.00,,,,,0,00,99.99,,,,,,*68
$GPGSA,A,1,,,,,,,,,,,,,99.99,99.99,99.99*30
$GPGSV,1,,44,33,,,43*70
$GPGLL,,,,,201940.00,V,N*44
$GPRMC,201941.00,V,,,,,,,,,,N*72
$GPVTG,,,,,,,,,N*30
$GPGGA,201941.00,,,,,9.99,,,,,,*69
$GPGSA,A,1,,,,,,,,,,,,,99.99,99.99,99.99*30
$GPGSV,1,1,04,12,,,28,3,,,43*79
$GPGLL,,,,,201941.00,V,N*45
$GPRMC,201942.00,V,,,,,,,,,,N*71
$GPVTG,,,,,,,,,N*30
$GPGGA,201942.0,0,00,99.99,,,,,,*6A
$GPGSA,A,1,,,,,,,,,,,,,99.99,99.99,99.99*30
$GPGSV,1,1,03,1$GPGLL,,,,,201942.00,V,N*46
$GPRMC,201943.00,V,,,,,,,,,,N*70
$GPVTG,,,,,,,,,N*30
$GPGGA,201943.00,,,,,0.99,,,,,,*6B
$GPGSA,A,1,,,,,,,,,,,,,99.99,99.99,99.99*30
$GPGSV,2,1,05,14,,,36,16,,43*7F
$GPGSV,2,2,05,33,,,43*7B
$GPGLL,,,,,201943.00,V,N*47
$GPRMC,201944.00,V,,,,,,,,,,N*77
$GPVTG,,,,,,,,,N*30
$GPGGA,201944.00,,0,99.99,,,,,,*6C
$GPGSA,A,1,,,,,,,,,,,,,99.99,99.99,99.99*30
$GPGSV,1,1,04,14,,,5,33,,,43*77
$GPGLL,,,,,201944.00,V,N*40
$GPRMC,201945.00,V,,,,,,,,,,N*76
$GPVTG,,,,,,,,,N*30
$GPGGA,201945.00,,,,,0,00,,,,,*6D
$GPGSA,A,1,,,,,,,,,,,,,99.99,99.99,99.99*30
$GPGSV,1,1,04,14,,,35,19,,,2*77
$GPGLL,,,,,201945.00,V,N*41
$GPRMC,201946.00,V,,,,,,,,,,N*75
$GPVTG,,,,,,,,,N*30
$GPGGA,20100,,,,,0,00,99.99,,,,,,*6E
$GPGSA,A,1,,,,,,,,,,,,,99.99,99.99,99.99*30
$GPGSV,1,1,35,31,,,44,33,,,43*75
$GPGLL,,,,,201946.00,V,N*42
$GPRMC,201947.00,V,,,,,,,280415,,,N*7E
$GPVTG,,,,,,,,,N*30
$GPGGA,201947.00,00,99.99,,,,,,*6F
$GPGSA,A,1,,,,,,,,,,,,,99.99,99.99,99.99*30
$GPGSV,1,1,04,14,,,71
$GPGLL,,,,,201947.00,V,N*43
$GPRMC,201948.00,V,,,,,,,280415,,,N*71
$GPVTG,,,,,,,,,N*30
$GPGGA,20194$GPRMC,201949.00,V,,,,,,,280415,,,N*70
$GPVTG,,,,,,,,,N*30
$GPGGA,201949.00,00,99.99,,,,,,*61
$GPGSA,A,1,,,,,,,,,,,,,99.99,99.99,99.99*30
$GPGSV,1,1,04,14,,44,33,,,43*77
$GPGLL,,,,,201949.00,V,N*4D
$GPRMC,201950.00,V,,,,,,,280415,,,N*78
$GPVTG,,,,,,,,,N*30
$GPGGA,201950.00,,,99.99,,,,,,*69
$GPGSA,A,1,,,,,,,,,,,,,99.99,99.99,99.99*30
$GPGSV,1,1,04,14,,,3333,,,43*77
$GPGLL,,,,,201950.00,V,N*45
$GPRMC,201951.00,V,,,,,,,280415,,,N*79
$GPVTG,,,,,,,,,N*30
$GPGGA,201951.00,,,,,0,00,99.99,,,,,,*68
$GPGSA,A,1,,,,,,,,,,,,,99.99,99.99,99.99*30
$1,1,04,14,,,34,19,,,36,31,,,43,33,,,43*70
$GPGLL,,,,,201951.00,V,N*44
$GPRMC,201952.00,V,,,,,,,280415,,,N*7A
$GPVTG,,,,,,,,,N*30
$GPGGA,201952.00,,,,,0,00,99.99,,,,,,*6B
$GPGSA,A,1,,,,,,,,,,,,,99.99,99.99,99.
$GPGSV,1,1,04,14,,,34,19,,,36,31,,,43,33,,,43*70
$GPGLL,,,,,201952.00,V,N*47
$GPRMC,201953.00,V,,,,,,,280415,,,N*7B
$GPVTG,,,,,,,,,N*30
$GPGGA,201,,,0,00,99.99,,,,,,*6A
$GPGSA,A,1,,,,,,,,,,,,,99.99,99.99,99.99*30
$GPGSV,1,1,04,,36,31,,,44,33,,,43*70
$GPGLL,,,,,201953.00,V,N*46
$GPRMC,201954.00,V,,,,,,,280415,,,N*7C
$GPVTG,,,,,,,,,N*30
$GPGGA,201,,,,0,00,99.99,,,,,,*6D
$GPGSA,A,1,,,,,,,,,,,,,99.99,99.99,99.99*30
$GPGSV,1,1,04,,37,31,,,44,33,,,44*71
$GPGLL,,,,,201954.00,V,N*41
$GPRMC,201955.00,V,,,,,,,280415,,,N*7D
$GPVTG,,,,,,,,,N*30
$GPGGA,201955.00,,,,99,,,,,,*6C
$GPGSA,A,1,,,,,,,,,,,,,99.99,99.99,99.99*30
$GPGSV,1,1,04,14,,,33,19
$GPRMC,201956.00,V,,,,,,,280415,,,N*7E
$GPVTG,,,,,,,,,N*30
$GPGGA,20196.00,,,,,0,00,99.99,,,,,,*6F
$GPGSA,A,1,,,,,,,,,,,,,99.99,99.99,99.99*30
$GPGSV,17,31,,,43,33,,,43*76
$GPGLL,,,,,201956.00,V,N*43
$GPRMC,201957.00,V,,,,,,,280415,,,N*7F
$GPVTG,,,,,,,,,N*30
$GPGGA201957.00,,,,,0,00,99.99,,,,,,*6E
$GPGSA,A,1,,,,,,,,,,,,,99.99,99.99,99.99*30
$G19,,,37,31,,,43,33,,,43*71
$GPGLL,,,,,201957.00,V,N*42
$GPRMC,201957.00,V,,,,,,,280415,,,N*7F
$GPVTG,,,,,,,,,N*30
$GPGGA,201957.00,,,0,00,99.99,,,,,,*6E
$GPGSA,A,1,,,,,,,,,,,,,99.99,99.99,99.99*30
$GPGSV,1,1,04,3*70
$GPGLL,,,,,201957.00,V,N*42
$GPRMC,201958.00,V,,,,,,,280415,,,N*70
$GPVTG,,,,,,,,,N*30
$GPGGA,201958.00,,,,$GPRMC,201958.99,V,,,,,,,280415,,,N*70
$GPVTG,,,,,,,,,N*30
$GPGGA,2019.99,,,,,0,00,99.99,,,,,,*61
$GPGSA,A,1,,,,,,,,,,,,,99.99,99.99,99.99*30
$GPGSV,1,31,,,43,33,,,42*72
$GPGLL,,,,,201958.99,V,N*4D
$GPRMC,202000.00,V,,,,,,,280415,,,N*77
$GPVTG,,,,,,,,,N*30
$GPGGA,202000.00,,,,00,99.99,,,,,,*66
$GPGSA,A,1,,,,,,,,,,,,,99.99,99.99,99.99*30
$GPGSV,1,1,04,14,,$GPRMC,202001.00,V,,,,,,,280415,,,N*76
$GPVTG,,,,,,,,,N*30
$GPGGA,0,,,,,0,00,99.99,,,,,,*67
$GPGSA,A,1,,,,,,,,,,,,,99.99,99.99,99.99*30
$GPGSV,1,1,,,,35,31,,,43,33,,,42*72
$GPGLL,,,,,202001.00,V,N*4B
$GPRMC,202001.99,V,,,,,,,280415,,,N*76
$GPVTG,,,,,,,,,N*30
$GPGGA,202001,00,99.99,,,,,,*67
$GPGSA,A,1,,,,,,,,,,,,,99.99,99.99,99.99*30
$GPGSV,1,1,04,14,1,,,43,33,,,43*73
$GPGLL,,,,,202001.99,V,N*4B
$GPRMC,202003.00,V,,,,,,,280415,,,N*74
$GPVTG,,,,,,,,,N*30
$GPGGA,202009,,,,,,*65
$GPGSA,A,1,,,,,,,,,,,,,99.99,99.99,99.99*30
$GPGSV,2,1,05,11,,,28,14,,,,,43*7F
$GPGSV,2,2,05,33,,,43*7B
$GPGLL,,,,,202003.00,V,N*49
$GPRMC,202004.00,V,,,,,,,280415,,,N*73
$GPVTG,,,,,,,,,N*30
$GPGGA,202004.00,99.99,,,,,,*62
$GPGSA,A,1,,,,,,,,,,,,,99.99,99.99,99.99*30
$GPGSV,1,1,04,14,,,34,42,33,,,42*70
$GPGLL,,,,,202004.00,V,N*4E
$GPRMC,202004.99,V,,,,,,,280415,,,N*73
$GPVTG,,,,,,,,,N*30
$GPGGA,202004.00,99.99,,,,,,*62
$GPGSA,A,1,,,,,,,,,,,,,99.99,99.99,99.99*30
$GPGSV,2,1,06,13,,,,35*7A
$GPGSV,2,2,06,31,,,43,33,,,42*7C
$GPGLL,,,,,202004.99,V,N*4E
$GPRMC,202006.00,V,,,,,,,280415,,,N*71
$GPVTG,,,,,,,,,N*30
$GPGGA,202006.00,,,99,,,,,,*60
$GPGSA,A,1,,,,,,,,,,,,,99.99,99.99,99.99*30
$GPGSV,2,1,06,14,,,34,1619,,,35*71
$GPGSV,2,2,06,31,,,43,33,,,42*7C
$GPGLL,,,,,202006.00,V,N*4C
$GPRMC,202007.00,V,,,,,,,280415,,,N*70
$GPVTG,,,,,,,,,N*30
$GPGGA,202007.00,,,,,,,,,,,*61
$GPGSA,A,1,,,,,,,,,,,,,99.99,99.99,99.99*30
$GPGSV,1,1,04,14,,,34,19,,$GPRMC,202007.99,V,,,,,,,280415,,,N*70
$GPVTG,,,,,,,,,N*30
$GPGA,202007.99,,,,,0,00,99.99,,,,,,*61
$GPGSA,A,1,,,,,,,,,,,,,99.99,99.99,99.99*3034,19,,,34,31,,,43,33,,,42*73
$GPGLL,,,,,202007.99,V,N*4D
$GPRMC,202009.00,V,,,,,,,280415,,,N*7E
$GPVTG,,,,,,,,,N*30
$GPGA,202009.00,,,,,0,00,99.99,,,,,,*6F
$GPGSA,A,1,,,,,,,,,,,,,99.99,99.99,99.99*30
,19,,,34,31,,,43,33,,,42*73
$GPGLL,,,,,202009.00,V,N*43
$GPRMC,202010.00,V,,,,,,,280415,,,N*76
$GPVTG,,,,,,,,,N*30
$GPGGA202010.00,,,,,0,00,99.99,,,,,,*67
$GPGSA,A,1,,,,,,,,,,,,,99.99,99.99,99.99*30
$GP,,,34,31,,,43,33,,,42*72
$GPGLL,,,,,202010.00,V,N*4B
$GPRMC,202010.99,V,,,,,,,280415,,,N*76
$GPVTG,,,,,,,,,N*30
$GPGGA,202010.99,,,,,0,00,99.99,,,,,,*67
$GPGSA,A,1,,,,,,,,,,,,,99.99,99.99,99.99*30
$GPGSV,1,34,19,,,34,31,,,43,33,,,42*73
$GPGLL,,,,,202010.99,V,N*4B
$GPRMC,202012.00,V,,,,,,,280415,,,N*74
$GPVTG,,,,,,,,,N*30
$GPGGA,202012.00,,,,,0,00,99.99,,,,,,*65
$GPGSA,A,1,,,,,,,,,,,,,99.99,99.99,99.99*30,1,05,14,,,34,19,,,34,29,,,27,31,,,43*79
$GPGSV,2,2,05,33,,,42*7A
$GPGLL,,,,,2020$GPRMC,202013.00,V,,,,,,,280415,,,N*75
$GPVTG,,,,,,,,,N*30
$GPGGA,20201,,,,,0,00,99.99,,,,,,*64
$GPGSA,A,1,,,,,,,,,,,,,99.99,99.99,99.99*30
$GPGSV,1,1,035,31,,,43,33,,,43*73
$GPGLL,,,,,202013.00,V,N*48
$GPRMC,202013.99,V,,,,,,,280415,,,N*75
$GPVTG,,,,,,,,,N*30
$GPGGA,013.99,,,,,0,00,99.99,,,,,,*64
$GPGSA,A,1,,,,,,,,,,,,,99.99,99.99,99.99*30
$GPGSV,19,,,36,28,,,24,31,,,43*79
$GPGSV,2,2,05,33,,,42*7A
$GPGLL,,,,,202013.99,V,N*48$GPRMC,202015.00,V,,,,,,,280415,,,N*73
$GPVTG,,,,,,,,,N*30
$GPGGA,202015.0,,,35,28,,,23,31,,,43*7D
$GPGSV,2,2,05,33,,,42*7A
$GPGLL,,,,,202015.00,V,N*4E
$GPRMC,202016.00,V,,,,,,,280415,,,N*70
$GPVTG,,,,,,,,,N*30
$GPGGA,202016.,0,00,99.99,,,,,,*61
$GPGSA,A,1,,,,,,,,,,,,,99.99,99.99,99.99*30
$GPGSV,1,1,04,1,,,43,33,,,42*72
$GPGLL,,,,,202016.00,V,N*4D
$GPRMC,202016.99,V,,,,,,,280415,,,N*70
$GPVTG,,,,,,,,,N*30
$GPGGA,2020,,,,,0,00,99.99,,,,,,*61
$GPGSA,A,1,,,,,,,,,,,,,99.99,99.99,99.99*30
$GPGSV,2,1,3,28,,,22,31,,,43*7A
$GPGSV,2,2,05,33,,,42*7A
$GPGLL,,,,,202016.99,V,N*4D
$GPRMC,202018.00,V,,,,,,,280415,,,N*7E
$GPVTG,,,,,,,,,N*30
$GPGGA018.00,,,,,0,00,99.99,,,,,,*6F
$GPGSA,A,1,,,,,,,,,,,,,99.99,99.99,99.99*30
$GPGS19,,,33,31,,,43,33,,,42*74
$GPGLL,,,,,202018.00,V,N*43
$GPRMC,202019.00,V,,,,,,,280415,,,N*7F
$GPVTG,,,,,,,,,N*30
$GPG02019.00,,,,,0,00,99.99,,,,,,*6E
$GPGSA,A,1,,,,,,,,,,,,,99.99,99.99,99.99*30
$GP0,14,,,34,19,,,32,31,,,43*71
$GPGSV,2,2,05,33,,,42*7A
$GPGLL,,,,,202019.00,V,N*4$GPRMC,202019.99,V,,,,,,,280415,,,N*7F
$GPVTG,,,,,,,,,N*30
$GPGGA,202019.99,,,,9,,,,,,*6E
$GPGSA,A,1,,,,,,,,,,,,,99.99,99.99,99.99*30
$GPGSV,2,1,05,03,,,28,14,,$GPRMC,202021.00,V,,,,,,,280415,,,N*74
$GPVTG,,,,,,,,,N*30
$GPGGA00,,,,,0,00,99.99,,,,,,*65
$GPGSA,A,1,,,,,,,,,,,,,99.99,99.99,99.99*30
$GPGSV,2,1,,,35,19,,,31,31,,,43*7A
$GPGSV,2,2,05,33,,,42*7A
$GPGLL,,,,,202021.00,V,N*49
$GPRMC,202022.00,V,,,,,,,280415,,,N*77
$GPVTG,,,,,,,,,N*30
$GPG.00,,,,,0,00,99.99,,,,,,*66
$GPGSA,A,1,,,,,,,,,,,,,99.99,99.99,99.99*30
$GPGSV,2,14,,,35,19,,,30,31,,,43*74
$GPGSV,2,2,05,33,,,42*7A
$GPGLL,,,,,202022.00,V,N*4A$GPRMC,202022.99,V,,,,,,,280415,,,N*77
$GPVTG,,,,,,,,,N*30
$GPG2.99,,,,,0,00,99.99,,,,,,*66
$GPGSA,A,1,,,,,,,,,,,,,99.99,99.99,99.99*30
$GPGSV,2,14,,,34,19,,,31,31,,,43*74
$GPGSV,2,2,05,33,,,42*7A
$GPGLL,,,,,202022.99,V,N*4A$GPRMC,202024.00,V,,,,,,,280415,,,N*71
$GPVTG,,,,,,,,,N*30
$GPGGA,202024.00,99.99,,,,,,*60
$GPGSA,A,1,,,,,,,,,,,,,99.99,99.99,99.99*30
$GPGSV,2,1,05,03,,,,,32,31,,,43*76
$GPGSV,2,2,05,33,,,42*7A
$GPGLL,,,,,202024.00,V,N*4C
$GPRMC,202025.00,V,,,,,,,280415,,,N*70
$GPVTG,,,,,,,,,N*30
$GPGGA,2020,0,00,99.99,,,,,,*61
$GPGSA,A,1,,,,,,,,,,,,,99.99,99.99,99.99*30
$GPGSV,2,1,05,0319,,,33,31,,,43*77
$GPGSV,2,2,05,33,,,42*7A
$GPGLL,,,,,202025.00,V,N*4D
$GPRMC,202025.99,V,,,,,,,280415,,,N*70
$GPVTG,,,,,,,,,N*30
$GPGGA,,,,,,0,00,99.99,,,,,,*61
$GPGSA,A,1,,,,,,,,,,,,,99.99,99.99,99.99*30
$GPGSV,2,1,,,,35,19,,,33,31,,,42*76
$GPGSV,2,2,05,33,,,42*7A
$GPGLL,,,,,202025.99,V,N*4D
$GPRMC,202027.00,V,,,,,,,280415,,,N*72
$GPVTG,,,,,,,,,N*30
$GPGGA,202027,00,99.99,,,,,,*63
$GPGSA,A,1,,,,,,,,,,,,,99.99,99.99,99.99*30
$GPGSV,2,1,05,03,,,,,33,31,,,42*76
$GPGSV,2,2,05,33,,,42*7A
$GPGLL,,,,,202027.00,V,N*4F
$GPRMC,202028.00,V,,,,,,,280415,,,N*7D
$GPVTG,,,,,,,,,N*30
$GPGGA,202028.00,,,,,
$GPGSV,2,1,05,03,,,26,14,,,35,19,,,32,31,,,42*76
$GPGSV,2,2,05,33,,,42*7A
$GPGLL,V,N*40
$GPRMC,202028.99,V,,,,,,,280415,,,N*7D
$GPVTG,,,,,,,,,N*30
$GPGGA202028.99,,,,,0,00,99.99,,,,,,*6C
$GPGSA,A,1,,,,,,,,,,,,,99.99,99.99,99.99*30
$G4,,,35,19,,,32,31,,,42*77
$GPGSV,2,2,05,33,,,42*7A
$GPGLL,,,,,202028.99,V,N*40
$GPRMC,202030.00,V,,,,,,,280415,,,N*74
$GPVTG,,,,,,,,,N*30
$GPGGA,202030.00,,,,,0,00,99.99,,,,,,*65
$GPGSA,A,1,,,,,,,,,,,,,99.99,99.99,99.99*30
$GPGSV,,,,28,14,,,36,19,,,32,27,,,28*73
$GPGSV,2,2,06,31,,,42,33,,,42*7D
$GPGLL,,,,,20200,V,N*49
$GPRMC,202031.00,V,,,,,,,280415,,,N*75
$GPVTG,,,,,,,,,N*30
$GPGGA,202031.0*48
$GPRMC,202031.99,V,,,,,,,280415,,,N*75
$GPVTG,,,,,,,,,N*30
$GPGGA,202031.99,,,,,0,03,2.94,,,,,,*58
$GPGSA,A,1,31,14,19,,,,,,,,,,3.10,2.941,55,220,,03,,,28,14,18,138,36,19,26,334,31*4D
$GPGSV,2,2,06,31,48,084,42,33,42,05,202031.99,V,N*48
$GPRMC,202033.00,V,,,,,,,280415,,,N*77
$GPVTG,,,,,,,,,N*30
$GPGGA,00,,,,,0,03,2.94,,,,,,*5A
$GPGSA,A,1,31,14,19,,,,,,,,,,3.11,2.94,1.00*02
$GPGSV,2220,,03,,,28,14,18,138,36,19,26,334,31*4D
$GPGSV,2,2,06,31,48,084,42,33,42,056,42033.00,V,N*4A
$GPRMC,202034.00,V,,,,,,,280415,,,N*70
$GPVTG,,,,,,,,,N*30
$GPGGA,202034.00,,,,,,,,,,,*5D
$GPGSA,A,1,31,14,19,,,,,,,,,,3.11,2.94,1.00*02
$GPGSV,2,1,06,01,55,220,2,06,31,48,084,42,33,42,056,42*78
$GPGLL,,,,,202034.00,V,N*4D
$GPRMC,202035.00,V,,,,,,,280415,,,N*71
$GPVTG,,,,,,,,,N*30
$GPGGA,202,,0,03,2.94,,,,,,*5C
$GPGSA,A,1,31,14,19,,,,,,,,,,3.11,2.94,1.00*02
$GPGSV,2,1,05,03,,,27,14,18,138,35,19,26,334,31*46
$GPGSV,2,2,06,31,48,084,42,33,42,056,42*780,V,N*4C
$GPRMC,202036.00,V,,,,,,,280415,,,N*72
$GPVTG,,,,,,,,,N*30
$GPGGA,202036.00,.94,,,,,,*5F
$GPGSA,A,1,31,14,19,,,,,,,,,,3.11,2.94,1.00*02
$GPGSV,2,1,06,01,55,241,33,42,056,42*7B
$GPGLL,,,,,202036.00,V,N*4F
$GPRMC,202037.00,V,,,,,,,280415,,,N*73
$GPVTG,,,,,,,,,N*30
$GPGGA,202030,03,2.94,,,,,,*5E
$GPGSA,A,1,31,14,19,,,,,,,,,,3.11,2.94,1.00*02
$GPGSV,2,1,06,03,,,26,14,18,138,36,19,26,334,31*42
$GPGSV,2,2,06,31,48,084,42,33,42,056,42*78
$G,N*4E
$GPRMC,202038.00,V,,,,,,,280415,,,N*7C
$GPVTG,,,,,,,,,N*30
$GPGGA,202038.00,,,,,,,,,,*50
$GPGSA,A,1,31,14,19,,,,,,,,,,3.11,2.95,1.00*03
$GPGSV,2,1,06,01,55,220,,18,138,35,19,26,334,30*47
$GPGSV,2,2,06,31,48,084,42,33,42,056,42*78
$GPGLL,,,,,$GPRMC,202039.00,V,,,,,,,280415,,,N*7D
$GPVTG,,,,,,,,,N*30
$GPGGA,2020,0,03,2.95,,,,,,*51
$GPGSA,A,1,31,14,19,,,,,,,,,,3.11,2.95,1.00*03
$GPGSV,2,1,07,03,,,26,14,18,138,35,19,26,334,29*4E
$GPGSV,2,2,07,31,48,084,42,32,,,31,33,42,056,2039.00,V,N*40
$GPRMC,202040.00,V,,,,,,,280415,,,N*73
$GPVTG,,,,,,,,,N*30
$GPGGA,202,,,0,03,2.95,,,,,,*5F
$GPGSA,A,1,31,14,19,,,,,,,,,,3.11,2.95,1.00*03
$GPGSV,2,1,04,03,,,26,14,18,138,35,19,26,334,29*4E
$GPGSV,2,2,07,31,48,084,42,32,,,30,33,42,05V,N*4E
$GPRMC,202041.00,A,2627.98777,S,04906.83463,W,0.515,,280415,,,A*77
$GPM,0.515,N,0.955,K,A*2B
$GPGGA,202041.00,2627.98777,S,04906.83463,W,1,03,2.95,1.5,M$GPGSA,A,2,31,14,19,,,,,,,,,,3.11,2.95,1.00*00
$GPGSV,2,1,07,01,55,220,24,03,,,2634,29*4E
$GPGSV,2,2,07,31,48,084,42,32,,,30,33,42,056,42*7B
$GPGLL,2627.98777,S,$GPRMC,202042.00,A,2627.98787,S,04906.83503,W,1.207,,280415,,,A*79
$GP,1.207,N,2.236,K,A*22
$GPGGA,202042.00,2627.98787,S,04906.83503,W,1,03,2.95,1.3,M,2,1,07,01,55,220,24,03,,,26,14,18,138,35,19,26,334,29*4E
$GPGSV,2,2,07,31,48,084GPGLL,2627.98787,S,04906.83503,W,202042.00,A,A*6E
$GPRMC,202043.00,A,2627.98776,S,04906.83483,W,0.138,,280415,,,A*71
$GPVTG,,T,,M,0.1,0.256,K,A*28
$GPGGA,202043.00,2627.98776,S,04906.83483,W,1,03,2.95,1.1,M,-1.5,M,14,19,,,,,,,,,,3.11,2.95,1.00*00
$GPGSV,2,1,07,01,55,220,24,03,,,26,14,18,138,35,1F
$GPGSV,2,2,07,31,48,084,42,32,,,29,33,42,056,42*73
$GPGLL,2627.98776,S,04906.838
$GPRMC,202044.00,A,2627.98780,S,04906.83482,W,0.197,,280415,,,A*7B
$GPVTG197,N,0.365,K,A*2C
$GPGGA,202044.00,2627.98780,S,04906.83482,W,1,03,2.95,1.0,M,-1.14,19,,,,,,,,,,3.12,2.95,1.00*03
$GPGSV,2,1,07,01,55,220,24,03,,,26,14,18,138,36,SV,2,2,07,31,48,084,42,32,,,28,33,42,056,42*72
$GPGLL,2627.98780,S,04906.83482,W,67
$GPRMC,202045.00,A,2627.98793,S,04906.83507,W,0.617,,280415,,,A*7B
$GPVTG,,T,0.617,N,1.143,K,A*24
$GPGGA,202045.00,2627.98793,S,04906.83507,W,1,03,2.95,0.8,M,-2,31,14,19,,,,,,,,,,3.12,2.95,1.00*03
$GPGSV,2,1,07,01,55,220,25,03,,,25,14,18,13,27*42
$GPGSV,2,2,07,31,48,084,42,32,,,28,33,42,056,42*72
$GPGLL,2627.98793,S,04,A,A*68
$GPRMC,202046.00,A,2627.98808,S,04906.83505,W,0.392,,280415,,,A*7F
$GPVTG,,T,,M,0.392,N,0.726,K,A*28
$GPGGA,202046.00,2627.98808,S,04906.83505,W,1,03,,0.7,M,-1.5,M,,*42
$GPGSA,A,2,31,14,19,,,,,,,,,,3.12,2.95,1.00*03
$GPGSV,2,1,07,25,03,,,25,14,18,138,36,19,26,334,27*41
$GPGSV,2,2,07,31,48,084,42,32,,,28,33,42,02*72
$GPGLL,2627.98808,S,04906.83505,W,202046.00,A,A*64
$GPRMC,202047.00,A,2627.98817,S,04906.83482,W,0.488,,280415,,,A*72
$GPV.904,K,A*2A
$GPGGA,202047.00,2627.98817,S,04906.83482,W,1,03,2.95,0.6,M,-1.5,M,,*1,14,19,,,,,,,,,,3.12,2.95,1.00*03
$GPGSV,2,1,07,01,55,220,24,03,,,24,14,18,138,31
$GPGSV,2,2,07,31,48,084,42,32,,,28,33,42,056,42*72
$GPGLL,2627.98817,S,04906.83,A,A*65
$GPRMC,202048.00,A,2627.98827,S,04906.83471,W,0.361,,280415,,,A*72
$GPVTG,,T,,M,0.1,W,1,03,2.95,0.5,M,-1.5,M,,*41
$GPGSA,A,2,31,14,19,,,,,,,,,,3.12,2.95,1.00*03
$G5,220,24,03,,,23,14,18,138,36,19,26,334,27*49
$GPGSV,2,2,08,23,,,29,31,48,084,42,56,42*77
$GPGLL,2627.98827,S,04906.83471,W,202048.00,A,A*65
$GPRMC,202049.00,A,2627.98831,S,04906.83445,W,0.512,,280415,,,A*71
$G,T,,M,0.512,N,0.947,K,A*2F
$GPGGA,202049.00,2627.98831,S,04906.83445,W,1,03,2.96,
$GPGSA,A,2,31,14,19,,,,,,,,,,3.12,2.96,1.00*00
$GPGSV,3,1,09,01,55,220,23,03,,,,334,27*4E
$GPGSV,3,2,09,23,,,27,25,,,28,31,48,084,42,32,,,28*47
$GPGSV,3,3,09,3$GPRMC,202050.00,A,2627.98844,S,04906.83440,W,0.369,,280415,,,A*74PVTG,,T,,M,0.369,N,0.683,K,A*22
$GPGGA,202050.00,2627.98844,S,04906.83440,W,1,03,2SA,A,2,31,14,19,,,,,,,,,,3.12,2.96,1.00*00
$GPGSV,2,1,08,01,55,220,22,03,,,23,14,34,25*4D
$GPGSV,2,2,08,23,,,26,31,48,084,42,32,,,28,33,42,056,42*78
$GPGLL,2627.40,W,202050.00,A,A*6B
$GPRMC,202051.00,A,2627.98839,S,04906.83417,W,0.498,,280415,,,A*74
$GPV,,M,0.498,N,0.922,K,A*2F
$GPGGA,202051.00,2627.98839,S,04906.83417,W,1,03,2.96,0.$GPGSA,A,2,31,14,19,,,,,,,,,,3.12,2.96,1.00*00
$GPGSV,2,1,08,01,55,220,21,03,,,23,6,334,25*4E
$GPGSV,2,2,08,23,,,25,31,48,084,42,32,,,28,33,42,056,42*7B
$GPGLL,262051.00,A,A*62
$GPRMC,202052.00,A,2627.98839,S,04906.83397,W,0.823,,280415,,,A*74
$GPVTG,,T23,N,1.524,K,A*28
$GPGGA,202052.00,2627.98839,S,04906.83397,W,1,03,2.96,0.3,M,-1.A,2,31,14,19,,,,,,,,,,3.12,2.96,1.00*00
$GPGSV,2,1,08,01,55,220,19,03,,,22,14,18,22*43
$GPGSV,2,2,08,23,,,25,31,48,084,42,32,,,27,33,42,056,42*74
$GPGLL,2627.9883$GPRMC,202053.00,A,2627.98838,S,04906.83425,W,0.453,,280415,,,A*$GPVTG,,T,,M,0.453,N,0.839,K,A*23
$GPGGA,202053.00,2627.98838,S,04906.83425,W,1,0,M,,*40
$GPGSA,A,2,31,14,19,,,,,,,,,,3.12,2.96,1.00*00
$GPGSV,2,1,08,01,55,220,19,334,19*4B
$GPGSV,2,2,08,23,,,24,31,48,084,42,32,,,27,33,42,056,42*75
$GPGLL,2623425,W,202053.00,A,A*60
$GPRMC,202054.00,A,2627.98817,S,04906.83443,W,0.755,,280415,,,A*7E
$GPVTM,0.755,N,1.397,K,A*28
$GPGGA,202054.00,2627.98817,S,04906.83443,W,1,03,2.96,0.2,PGSA,A,2,31,14,19,,,,,,,,,,3.12,2.96,1.00*00
$GPGSV,2,1,08,01,55,220,18,03,,,23,14334,20*40
$GPGSV,2,2,08,23,,,26,31,48,084,43,32,,,27,33,42,056,42*76
$GPGLL,2627443,W,202054.00,A,A*6A
$GPRMC,202055.00,A,2627.98817,S,04906.83425,W,0.634,,280415,,,A*79
$GPVTG,,.634,N,1.174,K,A*21
$GPGGA,202055.00,2627.98817,S,04906.83425,W,1,03,2.96,0.2,M,-1,A,2,31,14,19,,,,,,,,,,3.13,2.96,1.00*01
$GPGSV,2,1,08,01,55,220,17,03,,,23,14,18,21*4F
$GPGSV,2,2,08,23,,,26,31,48,084,43,32,,,28,33,42,056,43*78
$GPGLL,2627.988W,202055.00,A,A*6B
$GPRMC,202056.00,A,2627.98824,S,04906.83399,W,1.204,,280415,,,A*7C
$GPVT,M,1.204,N,2.230,K,A*27
$GPGGA,202056.00,2627.98824,S,04906.83399,W,1,03,2.96,0.1,PGSA,A,2,31,14,19,,,,,,,,,,3.13,2.96,1.00*01
$GPGSV,2,1,08,01,55,220,16,03,,,20,1
$GPGSV,2,2,08,23,,,26,31,48,084,43,32,,,27,33,42,056,43*77
$GPGLL,2627.98824,S,056.00,A,A*68
$GPRMC,202057.00,A,2627.98824,S,04906.83427,W,0.166,,280415,,,A*79
$GPVTG,,T,,0.307,K,A*26
$GPGGA,202057.00,2627.98824,S,04906.83427,W,1,03,2.96,0.1,M,-1.5,M,,*$GPRMC,202058.00,A,2627.98816,S,04906.83481,W,0.838,,280415,,,A*79
$GPT,,M,0.838,N,1.552,K,A*23
$GPGGA,202058.00,2627.98816,S,04906.83481,W,1,03,2.96,0.$GPGSA,A,2,31,14,19,,,,,,,,,,3.13,2.96,1.00*01
$GPGSV,2,1,08,01,55,220,19,03,,,16,6,334,25*43
$GPGSV,2,2,08,23,,,25,31,48,084,43,32,,,27,33,42,056,42*75
$GPGLL,262S,04906.83481,W,202058.00,A,A*69
$GPRMC,202059.00,A,2627.98819,S,04906.83530,W,0.450,,280415,,,A*7E
$GPVTG,,T,,M,0.450,N,0.834,K,A*2D
$GPGGA,202059.00,2627.98819,S,04906.835303,2.97,0.0,M,-1.5,M,,*4F
$GPGSA,A,2,31,14,19,,,,,,,,,,3.13,2.97,1.00*00
$GPGSV,21,55,220,20,03,,,19,14,18,138,36,19,26,334,27*44
$GPGSV,2,2,08,23,,,26,31,48,084,427,33,42,056,42*71
$GPGLL,2627.98819,S,04906.83530,W,202059.00,A,A*6C
$GPRMC,202100.00,A,2627.98831,S,04906.83582,W,0.563,,280415,,,A*71
$GPVTG,T,,M,0.563,N,1.043,K,A*25
$GPGGA,202100.00,2627.98831,S,04906.83582,W,1,03,2.97,0.PGSA,A,2,31,14,19,,,,,,,,,,3.13,2.97,1.00*00
$GPGSV,2,1,08,01,55,220,21,03,,,21,19,26,334,27*4F
$GPGSV,2,2,08,23,,,25,31,48,084,43,32,,,27,33,42,056,42*75
$GPGLL.83582,W,202100.00,A,A*62
$GPRMC,202101.00,A,2627.98843,S,04906.83632,W,0.497,,280415,,,A*77
$GPVTG,,,,M,0.497,N,0.920,K,A*22
$GPGGA,202101.00,2627.98843,S,04906.83632,W,1,03,2.97,-0.*00
$GPGSV,2,1,08,01,55,220,23,03,,,20,14,18,138,37,19,26,334,28*43
$GPGSV,2,2,08,084,43,32,,,27,33,42,056,42*76
$GPGLL,2627.98843,S,04906.83632,W,202101.00,A,A*6$GPRMC,202102.00,A,2627.98841,S,04906.83647,W,0.413,,280415,,,A*78
T,,M,0.413,N,0.765,K,A*21
$GPGGA,202102.00,2627.98841,S,04906.83647,W,1,03,2.97,-0*62
$GPGSA,A,2,31,14,19,,,,,,,,,,3.13,2.97,1.00*00
$GPGSV,2,1,08,01,55,220,23,03,,26,334,27*46
$GPGSV,2,2,08,23,,,26,31,48,084,42,32,,,27,33,42,056,42*77
$GPGLL,7,W,202102.00,A,A*6D
$GPRMC,202103.00,A,2627.98829,S,04906.83702,W,1.071,,280415,,,A*76
$GPVTG,,T,,M.983,K,A*27
$GPGGA,202103.00,2627.98829,S,04906.83702,W,1,03,2.97,-0.1,M,-1.5,M,,2,31,14,19,,,,,,,,,,3.13,2.97,1.00*00
$GPGSV,2,1,08,01,55,220,22,03,,,17,14,18,13
$GPGSV,2,2,08,23,,,26,31,48,084,43,32,,,26,33,42,056,43*76
$GPGLL,2627.98829,S,0202103.00,A,A*62
$GPRMC,202104.00,A,2627.98833,S,04906.83736,W,0.221,,280415,,,A*7B
$PVTG,,T,,M,0.221,N,0.410,K,A*27
$GPGGA,202104.00,2627.98833,S,04906.83736,W,1,03,2,A,2,31,14,19,,,,,,,,,,3.13,2.97,1.00*00
$GPGSV,2,1,08,01,55,220,19,03,,,18,14,18334,24*4D
$GPGSV,2,2,08,23,,,28,31,48,084,43,32,,,26,33,42,056,43*78
$GPGLL,2627W,202104.00,A,A*69
$GPRMC,202105.00,A,2627.98840,S,04906.83720,W,0.978,,280415,,,A*7E
$GPVTG,0.978,N,1.811,K,A*2C
$GPGGA,202105.00,2627.98840,S,04906.83720,W,1,03,2.97,-0.2,MGSA,A,2,31,14,19,,,,,,,,,,3.13,2.97,1.00*00
$GPGSV,2,1,08,01,55,220,17,03,,,20,14,34,22*4E
$GPGSV,2,2,08,23,,,28,31,48,084,43,32,,,26,33,42,056,42*79
$GPGLL,2627.5.00,A,A*6B
$GPRMC,202106.00,A,2627.98837,S,04906.83649,W,2.200,,280415,,,A*75
$GPVTG,,T,,,N,4.075,K,A*25
$GPGGA,202106.00,2627.98837,S,04906.83649,W,1,03,2.97,-0.3,M,-1.5,2,31,14,19,,,,,,,,,,3.14,2.97,1.00*07
$GPGSV,2,1,08,01,55,220,16,03,,,20,14,18,1*47
$GPGSV,2,2,08,23,,,28,31,48,084,43,32,,,27,33,42,056,42*78
$GPGLL,2627.98837202106.00,A,A*66
$GPRMC,202107.00,A,2627.98820,S,04906.83637,W,0.738,,280415,,,A*77
$GPVTG,,T,,M,0.7366,K,A*2D
$GPGGA,202107.00,2627.98820,S,04906.83637,W,1,03,2.97,-0.2,M,-1.5,M,,*6,,,,,3.14,2.97,1.00*07
$GPGSV,2,1,08,01,55,220,16,03,,,19,14,18,138,37,19,26,334,108,23,,,27,31,48,084,42,32,,,29,33,42,056,42*78
$GPGLL,2627.98820,S,04906.83637,W,$GPRMC,202108.00,A,2627.98806,S,04906.83636,W,0.651,,280415,,,A*73VTG,,T,,M,0.651,N,1.206,K,A*24
$GPGGA,202108.00,2627.98806,S,04906.83636,W,1,03,2,,*6E
$GPGSA,A,2,31,14,19,,,,,,,,,,3.14,2.97,1.00*07
$GPGSV,2,1,08,01,55,220,16,036,19,26,334,17*42
$GPGSV,2,2,08,23,,,27,31,48,084,42,32,,,28,33,42,056,42*79
$GP04906.83636,W,202108.00,A,A*62
$GPRMC,202109.00,V,,,,,,,280415,,,N*7F
$GPVTG,,,,,,,,,N*30
$GPGGA,202109.00,,,99.99,,,,,,*6E
$GPGSA,A,1,,,,,,,,,,,,,99.99,99.99,99.99*30
$GPGSV,2,1,08,01,55,228,138,37,19,26,334,*40
$GPGSV,2,2,08,23,,,29,31,48,084,44,32,,,29,33,42,056,42*709.00,V,N*42
$GPRMC,202110.00,V,,,,,,,280415,,,N*77
$GPVTG,,,,,,,,,N*30
$GPGGA,202110.00,,,,,.99,,,,,,*66
$GPGSA,A,1,,,,,,,,,,,,,99.99,99.99,99.99*30
$GPGSV,2,1,08,01,55,220,138,36,19,26,334,*4D
$GPGSV,2,2,08,23,,,28,31,48,084,44,32,,,29,33,42,056,42*71
00,V,N*4A
$GPRMC,202111.00,V,,,,,,,280415,,,N*76
$GPVTG,,,,,,,,,N*30
$GPGGA,202111.00,,,,,0,00,99.99,,,,,,*67
$GPGSA,A,1,,,,,,,,,,,,,99.99,99.99,99.99*30
$GPGSV,,01,55,220,22,03,,,17,14,18,138,37,19,26,334,*4C
$GPGSV,2,2,08,23,,,28,31,48,084,40,33,42,056,42*79
$GPGLL,,,,,202111.00,V,N*4B
$GPRMC,202112.00,V,,,,,,,280415,,,N*75
$GPVTG,,,,,,,,,N*30
$GPGGA,202112.00,,,,,0,00,99.99,,,,,,*64
$GPGSA,A,1,,,,,,,,,,,,,99.99,99.99,99.99*30
$GPGSV,2,1,05,220,21,03,,,17,14,18,138,37,19,26,334,27*4A
$GPGSV,2,2,08,23,,,27,31,48,084,44,3PGLL,,,,,202112.00,V,N*48
$GPRMC,202113.00,A,2627.98820,S,04906.83624,W,0.278,,280415,,,A*71
$GPVTG,,T,,M,N,0.514,K,A*2E
$GPGGA,202113.00,2627.98820,S,04906.83624,W,1,03,2.98,0.1,M,-1.5,,2,31,14,19,,,,,,,,,,3.14,2.98,1.00*08
$GPGSV,2,1,08,01,55,220,25,03,,,20,14,18,127*4A
$GPGSV,2,2,08,23,,,28,31,48,084,44,32,,,29,33,42,056,43*70
$GPGLL,2627.9882,W,202113.00,A,A*6F
$GPRMC,202114.00,A,2627.98829,S,04906.83630,W,0.495,,280415,,,A*7F
$GPVTG,,T,,M5,N,0.916,K,A*25
$GPGGA,202114.00,2627.98829,S,04906.83630,W,1,03,2.98,0.1,M,-1.5,8
$GPGSV,2,1,08,01,55,220,26,03,,,22,14,18,138,37,19,26,334,27*4B
$GPGSV,2,2,08,244,32,,,30,33,42,056,42*79
$GPGLL,2627.98829,S,04906.83630,W,202114.00,A,A*64
$GPRMC,202115.00,A,2627.98827,S,04906.83617,W,0.814,,280415,,,A*70VTG,,T,,M,0.814,N,1.508,K,A*22
$GPGGA,202115.00,2627.98827,S,04906.83617,W,1,03,2.*43
$GPGSA,A,2,31,14,19,,,,,,,,,,3.14,2.98,1.00*08
$GPGSV,2,1,08,01,55,220,28,03138,38,19,26,334,26*73
$GPGSV,2,2,08,23,,,29,31,48,084,44,32,,,29,33,42,056,42*70.83617,W,202115.00,A,A*6E
$GPRMC,202116.00,A,2627.98817,S,04906.83599,W,0.686,,280415,,,A*70
$GPVTG,,T,,M,0..270,K,A*2F
$GPGGA,202116.00,2627.98817,S,04906.83599,W,1,03,2.98,0.1,M,-1.5,M,,*,14,19,,,,,,,,,,3.14,2.98,1.00*08
$GPGSV,2,1,08,01,55,220,27,03,29,232,22,14,18,13*7A
$GPGSV,2,2,08,23,,,29,31,48,084,44,32,,,29,33,42,056,43*71
$GPGLL,2627.98817202116.00,A,A*6B
$GPRMC,202117.00,A,2627.98814,S,04906.83590,W,0.404,,280415,,,A*73
$GPVTG,,T,,MN,0.749,K,A*29
$GPGGA,202117.00,2627.98814,S,04906.83590,W,1,03,2.98,0.0,M,-1.5,M,,,,,,,,,3.15,2.98,1.00*09
$GPGSV,2,1,08,01,55,220,28,03,29,232,22,14,18,138,38,1GPGSV,2,2,08,23,,,29,31,48,084,44,32,,,28,33,42,056,43*70
$GPGLL,2627.98814,S,049000,A,A*60
$GPRMC,202118.00,A,2627.98811,S,04906.83637,W,0.853,,280415,,,A*79
$GPVTG,,T,,M,0,1.580,K,A*21
$GPGGA,202118.00,2627.98811,S,04906.83637,W,1,03,2.98,0.0,M,-1.5,M,,1,14,19,,,,,,,,,,3.15,2.98,1.00*09
$GPGSV,2,1,08,01,55,220,28,03,29,232,23,14,18,1,056,42*71
$GPGLL,2627.98811,S,04906.83637,W,202118.00,A,A*64
$GPRMC,202119.00,A,2627.98796,S,04906.83682,W,1.875,,280415,,,A*73
$GPVTG,,T,,M,,3.472,K,A*2A
$GPGGA,202119.00,2627.98796,S,04906.83682,W,1,03,2.98,0.1,M,-1.5,M,31,14,19,,,,,,,,,,3.15,2.98,1.00*09
$GPGSV,2,1,08,01,55,220,29,03,29,232,23,14,18,23*79
$GPGSV,2,2,08,23,,,30,31,48,084,42,32,,,27,33,42,056,42*70
$GPGLL,2627.987W,202119.00,A,A*6B
$GPRMC,202120.00,A,2627.98787,S,04906.83672,W,0.276,,280415,,,A*7E
G,,T,,M,0.276,N,0.511,K,A*25
$GPGGA,202120.00,2627.98787,S,04906.83672,W,1,03,2.99,31,14,19,,,,,,,,,,3.15,2.99,1.00*08
$GPGSV,2,1,08,01,55,220,29,03,29,232,24,14,18$GPRMC,202121.00,A,2627.98775,S,04906.83601,W,1.288,,280415,,,A*76
$GPV,,T,,M,1.288,N,2.386,K,A*2F
$GPGGA,202121.00,2627.98775,S,04906.83601,W,1,03,2.99GPGSA,A,2,31,14,19,,,,,,,,,,3.15,2.99,1.00*08
$GPGSV,2,1,08,01,55,220,28,03,29,23237,19,26,334,23*7F
$GPGSV,2,2,08,23,,,28,31,48,084,42,32,,,28,33,42,056,42*76
$G06.83601,W,202121.00,A,A*66
$GPRMC,202122.00,A,2627.98780,S,04906.83565,W,0.598,,280415,,,A*79
$GPVTG,,T,0.598,N,1.108,K,A*2F
$GPGGA,202122.00,2627.98780,S,04906.83565,W,1,03,2.99,0.0,M,,2,31,14,19,,,,,,,,,,3.15,2.99,1.00*08
$GPGSV,2,1,08,01,55,220,27,03,29,232,24,1426,334,26*75
$GPGSV,2,2,08,23,,,28,31,48,084,42,32,,,28,33,42,056,42*76
$GPGLL,265,W,202122.00,A,A*6E
$GPRMC,202123.00,A,2627.98770,S,04906.83500,W,0.239,,280415,,,A*78
$GPVTG,,T,,06.83500,W,1,03,2.99,0.1,M,-1.5,M,,*4F
$GPGSA,A,2,31,14,19,,,,,,,,,,3.15,2.99,1.007,19,26,334,28*72
$GPGSV,2,2,08,23,,,29,31,48,084,43,32,,,27,33,42,056,42*79
$GP,S,04906.83500,W,202123.00,A,A*63
$GPRMC,202124.00,A,2627.98767,S,04906.83443,W,0.163,,280415,,,A*73
$GPVTG,,T,,M,0.163,N,0.302,K,A*26
$GPGGA,202124.00,2627.98767,S,04906.83443,W,1,03,2.99,0,-1.5,M,,*48
$GPGSA,A,2,31,14,19,,,,,,,,,,3.15,2.99,1.00*08
$GPGSV,2,1,08,01,55,9,232,22,14,18,138,37,19,26,334,28*7B
$GPGSV,2,2,08,23,,,31,31,48,084,43,32,,,28,2,056,42*7F
$GPGLL,2627.98767,S,04906.83443,W,202124.00,A,A*64
$GPRMC,202125.00,A,2627.98764,S,04906.83388,W,0.458,,280415,,,A*7C
$GPVTG,,T,,M,0
$GPGGA,202125.00,2627.98764,S,04906.83388,W,1,03,2.99,0.1,M,-1.5,M,,*4A
$GPGSA,A,,,,,3.15,2.99,1.00*08
$GPGSV,2,1,08,01,55,220,30,03,29,232,23,14,18,138,36,19,26SV,2,2,08,23,,,31,31,48,084,43,32,,,28,33,42,056,42*7F
$GPGLL,2627.98764,S,04906.8,A,A*66
$GPRMC,202126.00,A,2627.98766,S,04906.83376,W,0.152,,280415,,,A*73
$GPVTG,M,0.152,N,0.281,K,A*2E
$GPGGA,202126.00,2627.98766,S,04906.83376,W,1,03,2.99,0.2,GPGSA,A,2,31,14,19,,,,,,,,,,3.15,2.99,1.00*08
$GPGSV,2,1,08,01,55,220,31,03,29,237,19,26,334,28*7A
$GPGSV,2,2,08,23,,,30,31,48,084,43,32,,,28,33,42,056,42*7E
$GP$GPRMC,202127.00,A,2627.98764,S,04906.83363,W,0.156,,280415,,,A*7$GPVTG,,T,,M,0.156,N,0.289,K,A*22
$GPGGA,202127.00,2627.98764,S,04906.83363,W,1,03M,,*4D
$GPGSA,A,2,31,14,19,,,,,,,,,,3.16,2.99,1.00*0B
$GPGSV,2,1,08,01,55,220,32,8,138,37,19,26,334,28*79
$GPGSV,2,2,08,23,,,30,31,48,084,43,32,,,28,33,42,056,42*8764,S,04906.83363,W,202127.00,A,A*61
$GPRMC,202128.00,A,2627.98773,S,04906.83381,W,0.470,,280415,,,A*74
$GPVTG,,T,,M,01,K,A*2E
$GPGGA,202128.00,2627.98773,S,04906.83381,W,1,03,2.99,0.1,M,-1.5,M,,*48,,,,,,,3.16,2.99,1.00*0B
$GPGSV,2,1,08,01,55,220,31,03,29,232,23,14,18,138,36,19,2PGLL,2627.98773,S,04906.83381,W,202128.00,A,A*64
$GPRMC,202129.00,A,2627.98772,S,04906.83387,W,0.467,,280415,,,A*74
GPVTG,,T,,M,0.467,N,0.865,K,A*2D
$GPGGA,202129.00,2627.98772,S,04906.83387,W,1,03,4E
$GPGSA,A,2,31,14,19,,,,,,,,,,3.16,2.99,1.00*0B
$GPGSV,2,1,08,01,55,220,30,03,2,138,36,19,26,334,28*7B
$GPGSV,2,2,08,23,,,30,31,48,084,43,32,,,28,33,42,056,42*73387,W,202129.00,A,A*62
$GPRMC,202130.00,A,2627.98779,S,04906.83386,W,0.508,,280415,,,A*7E$GPVTG,,T,,M,0.508,N,0.942,K,A*21
$GPGGA,202130.00,2627.98779,S,04906.83386,W,1,0*4D
$GPGSA,A,2,31,14,19,,,,,,,,,,3.16,3.00,1.00*0A
$GPGSV,2,1,08,01,55,220,30,0318,138,36,19,26,334,27*73
$GPGSV,2,2,08,23,,,31,31,48,084,44,32,,,30,33,42,056,4279,S,04906.83386,W,202130.00,A,A*60
$GPRMC,202131.00,A,2627.98778,S,04906.83401,W,0.202,,280415,,,A*7
$GPVTG,,T,,M,0.202,N,0.375,K,A*22
$GPGGA,202131.00,2627.98778,S,04906.83401,W,1GSA,A,2,31,14,19,,,,,,,,,,3.16,3.00,1.00*0A
$GPGSV,2,1,08,01,55,220,30,03,29,232,7,19,26,334,27*72
$GPGSV,2,2,08,23,,,31,31,48,084,44,32,,,30,33,42,056,43*70
$GP6.83401,W,202131.00,A,A*68
$GPRMC,202132.00,A,2627.98782,S,04906.83416,W,0.264,,280415,,,A*7B
$GPVTG,,M,0.264,N,0.489,K,A*26
$GPGGA,202132.00,2627.98782,S,04906.83416,W,1,03,3.00,0.1A,A,2,31,14,19,,,,,,,,,,3.16,3.00,1.00*0A
$GPGSV,2,1,08,01,55,220,30,03,29,232,23,9,26,334,26*74
$GPGSV,2,2,08,23,,,30,31,48,084,44,32,,,31,33,42,056,43*70
$GPGLL132.00,A,A*68
$GPRMC,202133.00,A,2628.00080,S,04906.85481,W,0.845,,280415,,,A*70
$GPVTG,,T,,M,,1,04,1.49,43.9,M,-1.5,M,,*70
$GPGSA,A,3,31,01,14,19,,,,,,,,,2.83,1.49,2.40*0F
$1,55,220,31,03,29,232,22,14,18,138,37,19,26,334,26*74
$GPGSV,2,2,08,23,,,30,31,48,,056,42*70
$GPGLL,2628.00080,S,04906.85481,W,202133.00,A,A*6A
$GPRMC,202134.00,A,2628.00124,S,04906.85556,W,0.655,,280415,,,A*7C
$GPVTG,,T,,M,0.61.213,K,A*24
$GPGGA,202134.00,2628.00124,S,04906.85556,W,1,04,1.49,43.6,M,-1.5,M,,,,,,,,2.83,1.49,2.40*0F
$GPGSV,2,1,08,01,55,220,31,03,29,232,23,14,18,138,37,19,2GPGSV,2,2,08,23,,,32,31,48,084,44,32,,,30,33,42,056,43*73
$GPGLL,2628.00124,S,049A,A*69
$GPRMC,202135.00,A,2628.00118,S,04906.85550,W,0.272,,280415,,,A*75
$GPVTG,2,N,0.504,K,A*25
$GPGGA,202135.00,2628.00118,S,04906.85550,W,1,04,1.49,42.8,M,-1..00118,S,04906.85550,W,202135.00,A,A*61
$GPRMC,202136.00,A,2628.00120,S,04906.85540,W,0.081,,280415,,,A*72
$GPVTG,,T,,MN,0.150,K,A*2E
$GPGGA,202136.00,2628.00120,S,04906.85540,W,1,04,1.49,42.6,M,-1.5,M,31,01,14,19,,,,,,,,,2.83,1.49,2.40*0F
$GPGSV,2,1,08,01,55,220,28,03,29,232,25,1436,19,26,334,28*74
$GPGSV,2,2,08,23,,,30,31,48,084,44,32,,,31,33,42,056,43*70
$G28.00120,S,04906.85540,W,202136.00,A,A*68
$GPRMC,202137.00,A,2628.00140,S,04906.85566,W,0.256,,280415,,,A*79
$GPVTG,,T,,M,0.256,N,0.474,K,A*25
$GPGGA,202137.00,2628.00140,S,04906.85566,W,1,0442.7,M,-1.5,M,,*7E
$GPGSA,A,3,31,01,14,19,,,,,,,,,2.83,1.49,2.40*0F
$GPGSV,2,1,0820,29,03,29,232,24,14,18,138,37,19,26,334,33*7F
$GPGSV,2,2,08,23,,,29,31,48,084,4
$GPGLL,2628.00140,S,04906.85566,W,202137.00,A,A*6B
$GPRMC,202138.00,A,2628.00149,S,04906.85574,W,0.609,,280415,,,A*72
$GPVTG,,T,,M,028,K,A*26
$GPGGA,202138.00,2628.00149,S,04906.85574,W,1,04,1.49,42.8,M,-1.5,M,,*73,31,01,14,19,,,,,,,,,2.82,1.49,2.40*0E
$GPGSV,2,1,08,01,55,220,28,03,29,232,22,14,31*7A
$GPGSV,2,2,08,23,,,29,31,48,084,44,32,,,30,33,42,056,43*79
$GPGLL,2628.0085574,W,202138.00,A,A*6E
$GPRMC,202139.00,A,2628.00184,S,04906.85575,W,0.346,,280415,,,A*7D
$GPVTG,,T,,M,0.306.85575,W,1,04,1.49,43.4,M,-1.5,M,,*78
$GPGSA,A,3,31,01,14,19,,,,,,,,,2.82,1.49,V,3,1,09,01,55,220,28,03,29,232,21,14,18,138,37,19,26,334,31*79
$GPGSV,3,2,09,23,8,084,43,32,,,30*70
$GPGSV,3,3,09,33,42,056,43*42
$GPGLL,2628.00184,S,04906.85575,A*6F
$GPRMC,202140.00,A,2628.00211,S,04906.85583,W,0.262,,280415,,,A*72
$GPVTG,,,M,0.262,N,0.485,K,A*2C
$GPGGA,202140.00,2628.00211,S,04906.85583,W,1,04,1.49,43.6SA,A,3,31,01,14,19,,,,,,,,,2.82,1.49,2.40*0E
$GPGSV,3,1,09,01,55,220,29,03,29,23234,31*78
$GPGSV,3,2,09,23,,,29,27,07,358,,31,48,084,43,32,,,30*70
$GPGSV,3,3,09,LL,2628.00211,S,04906.85583,W,202140.00,A,A*67
$GPRMC,202141.00,A,2628.00213,S,04906.85569,W,0.322,,280415,,,A*70
$GPVTG,,T,,322,N,0.597,K,A*2B
$GPGGA,202141.00,2628.00213,S,04906.85569,W,1,04,1.49,43.7,M,-,3,31,01,14,19,,,,,,,,,2.82,1.49,2.40*0E
$GPGSV,3,1,09,01,55,220,28,03,29,232,20,1,26,334,31*79
$GPGSV,3,2,09,23,,,28,27,07,358,26,31,48,084,44,32,,,30*72
$GPGSV,42
$GPGLL,2628.00213,S,04906.85569,W,202141.00,A,A*60
$GPRMC,202142.00,A,2628.00216,S,04906.85556,W,0.093,,280415,,,A*73
$GPVTG,,T,,M,0.N,0.172,K,A*2D
$GPGGA,202142.00,2628.00216,S,04906.85556,W,1,04,1.49,43.7,M,-1.5,,01,14,19,,,,,,,,,2.82,1.49,2.40*0E
$GPGSV,3,1,09,01,55,220,28,03,29,232,20,14,18$GPRMC,202143.00,A,2628.00222,S,04906.85569,W,0.151,,280415,,,A*76
$GT,,M,0.151,N,0.279,K,A*2A
$GPGGA,202143.00,2628.00222,S,04906.85569,W,1,04,1.49,4GSV,3,1,09,01,55,220,28,03,29,232,23,14,18,138,36,19,26,334,30*7B
$GPGSV,3,2,09,224,31,48,084,44,32,,,31*7E
$GPGSV,3,3,09,33,42,056,42*43
$GPGLL,2628.00222,S,049
$GPRMC,202144.00,A,2628.00220,S,04906.85571,W,0.008,,280415,,,A*77
$GPVTG,,T08,N,0.014,K,A*2E
$GPGGA,202144.00,2628.00220,S,04906.85571,W,1,04,1.49,43.6,M,-1A,3,31,01,14,19,,,,,,,,,2.82,1.49,2.40*0E
$GPGSV,3,1,09,01,55,220,29,03,29,232,2226,334,30*7A
$GPGSV,3,2,09,23,,,27,27,07,358,23,31,48,084,44,32,,,31*79
$GPGSV,3,*42
$GPGLL,2628.00220,S,04906.85571,W,202144.00,A,A*6C
$GPRMC,202145.00,A,2628.00226,S,04906.85572,W,0.217,,280415,,,A*7F
,,T,,M,0.217,N,0.402,K,A*21
$GPGGA,202145.00,2628.00226,S,04906.85572,W,1,04,1.49,A,3,31,01,14,19,,,,,,,,,2.82,1.49,2.40*0E
$GPGSV,3,1,10,01,55,220,28,03,29,232,21,138,37*75
$GPGSV,3,2,10,19,26,334,31,23,,,29,27,07,358,22,31,48,084,44*47
$GPGSV3,42,056,43*49
$GPGLL,2628.00226,S,04906.85572,W,202145.00,A,A*68
$GPRMC,202146.00,A,2628.00220,S,04906.85583,W,0.068,,280415,,,A*7E
$GPVTG,,T,68,N,0.127,K,A*29
$GPGGA,202146.00,2628.00220,S,04906.85583,W,1,04,1.49,44.0,M,-1.A,3,31,01,14,19,,,,,,,,,2.82,1.49,2.39*00
$GPGSV,3,1,10,01,55,220,28,03,29,232,19,
$GPGSV,3,2,10,19,26,334,30,23,,,30,27,07,358,,31,48,084,44*4E
$GPGSV,3,3,10,32,49
$GPGLL,2628.00220,S,04906.85583,W,202146.00,A,A*63
$GPRMC,202147.00,A,2628.00240,S,04906.85592,W,0.779,,280415,,,A*7E
,,T,,M,0.779,N,1.442,K,A*29
$GPGGA,202147.00,2628.00240,S,04906.85592,W,1,04,1.4971
$GPGSA,A,3,31,01,14,19,,,,,,,,,2.82,1.49,2.39*00
$GPGSV,3,1,10,01,55,220,28,0351,25,14,18,138,36*72
$GPGSV,3,2,10,19,26,334,30,23,,,30,27,07,358,,31,48,084,44*,32,,,31,33,42,056,43*49
$GPGLL,2628.00240,S,04906.85592,W,202147.00,A,A*64
$GPRMC,202148.00,A,2628.00246,S,04906.85588,W,0.262,,280415,,,A*73
$GPVTG,,T,,M,0.262,N,0.485,K,A*2C
$GPGGA,202148.00,2628.00246,S,04906.85588,W1.49,44.1,M,-1.5,M,,*73
$GPGSA,A,3,31,01,14,19,,,,,,,,,2.82,1.49,2.39*00
$GPGSV,1,55,220,28,03,29,232,22,04,84,251,22,14,18,138,37*76
$GPGSV,3,2,10,19,26,334,29,,27,07,358,,31,48,084,44*46
$GPGSV,3,3,10,32,,,31,33,42,056,43*49
$GPGLL,2628.002906.85588,W,202148.00,A,A*66
$GPRMC,202149.00,A,2628.00239,S,04906.85574,W,0.143,,280415,,,A*79
$GPVTG,T,,M,0.143,N,0.265,K,A*24
$GPGGA,202149.00,2628.00239,S,04906.85574,W,1,04,1.49,44PGSA,A,3,31,01,14,19,,,,,,,,,2.82,1.49,2.39*00
$GPGSV,3,1,10,01,55,220,28,03,29,2$GPRMC,202150.00,A,2628.00234,S,04906.85569,W,0.102,,280415,,,A*7$GPVTG,,T,,M,0.102,N,0.189,K,A*20
$GPGGA,202150.00,2628.00234,S,04906.85569,W,1,045,M,,*73
$GPGSA,A,3,31,01,14,19,,,,,,,,,2.82,1.49,2.39*00
$GPGSV,3,1,10,01,55,220,04,84,251,21,14,18,138,37*75
$GPGSV,3,2,10,19,26,334,31,23,,,31,27,07,358,,31,48,2628.00234,S,04906.85569,W,202150.00,A,A*65
$GPRMC,202151.00,A,2628.00227,S,04906.85582,W,0.256,,280415,,,A*71VTG,,T,,M,0.256,N,0.475,K,A*24
$GPGGA,202151.00,2628.00227,S,04906.85582,W,1,04,1.,*76
$GPGSA,A,3,31,01,14,19,,,,,,,,,2.82,1.49,2.39*00
$GPGSV,3,1,10,01,55,220,28,4,251,22,14,18,138,37*77
$GPGSV,3,2,10,19,26,334,31,23,,,30,27,07,358,,31,48,084,410,32,,,32,33,42,056,43*4A
$GPGLL,2628.00227,S,04906.85582,W,202151.00,A,A*63
$GPRMC,202152.00,A,2628.00217,S,04906.85586,W,0.128,,280415,,,A*7F
$,,T,,M,0.128,N,0.238,K,A*21
$GPGGA,202152.00,2628.00217,S,04906.85586,W,1,04,1.497D
$GPGSA,A,3,31,01,14,19,,,,,,,,,2.82,1.49,2.39*00
$GPGSV,3,1,10,01,55,220,28,03251,23,14,18,138,37*76
$GPGSV,3,2,10,19,26,334,32,23,,,29,27,07,358,22,31,48,084,.85586,W,202152.00,A,A*67
$GPRMC,202153.00,A,2628.00217,S,04906.85585,W,0.506,,280415,,,A*75
$GPV,,M,0.506,N,0.937,K,A*2D
$GPGGA,202153.00,2628.00217,S,04906.85585,W,1,04,1.49,43.$GPGSA,A,3,31,01,14,19,,,,,,,,,2.82,1.49,2.39*00
$GPGSV,3,1,10,01,55,220,29,03,29,38,37*77
$GPGSV,3,2,10,19,26,334,31,23,,,30,27,07,358,22,31,48,084,44*4F
$GPGSV,42,056,43*49
$GPGLL,2628.00217,S,04906.85585,W,202153.00,A,A*65
$GPRMC,202154.00,A,2628.00217,S,04906.85590,W,0.163,,280415,,,A*71
$GPVTG,,T,,M,0.101,K,A*25
$GPGGA,202154.00,2628.00217,S,04906.85590,W,1,04,1.49,43.7,M,-1.5,M,,*701,14,19,,,,,,,,,2.82,1.49,2.39*00
$GPGSV,3,1,10,01,55,220,29,03,29,232,21,04,84,27*74
$GPGSV,3,2,10,19,26,334,31,23,,,30,27,07,358,22,31,48,084,44*4F
$GPGSV,3,3,56,42*48
$GPGLL,2628.00217,S,04906.85590,W,202154.00,A,A*66
$GPRMC,202155.00,A,2628.00207,S,04906.85581,W,0.277,,280415,,,A*77
$GPVTG,,T,,M,0.2513,K,A*26
$GPGGA,202155.00,2628.00207,S,04906.85581,W,1,04,1.49,43.7,M,-1.5,M,,*01,14,19,,,,,,,,,2.82,1.49,2.39*00
$GPGSV,3,1,10,01,55,220,29,03,29,232,19,04,84,38*7F
$GPGSV,3,2,10,19,26,334,29,23,,,29,27,07,358,23,31,48,084,44*4F
$GPGSV,3,3,056,43*48
$GPGLL,2628.00207,S,04906.85581,W,202155.00,A,A*66
$GPRMC,202156.00,A,2628.00204,S,04906.85572,W,0.501,,280415,,,A*7D
$GPVTG,0.501,N,0.928,K,A*24
$GPGGA,202156.00,2628.00204,S,04906.85572,W,1,04,1.49,43.7,,01,14,19,,,,,,,,,2.82,1.49,2.39*00
$GPGSV,3,1,10,01,55,220,30,03,29,232,19,04,8478
$GPGSV,3,2,10,19,26,334,29,23,,,28,27,07,358,23,31,48,084,43*49
$GPGSV,3,3,10,$GPRMC,202157.00,A,2628.00202,S,04906.85563,W,0.144,,280415,,,A*7F
$GTG,,T,,M,0.144,N,0.267,K,A*21
$GPGGA,202157.00,2628.00202,S,04906.85563,W,1,04,1.
$GPGSA,A,3,31,01,14,19,,,,,,,,,2.81,1.49,2.39*03
$GPGSV,3,1,10,01,55,220,31,03,2,251,21,14,17,138,37*70
$GPGSV,3,2,10,19,26,334,30,23,,,28,27,07,358,23,31,48,084,42,056,43*40
$GPGLL,2628.00202,S,04906.85563,W,202157.00,A,A*6D
$GPRMC,202158.00,A,2628.00205,S,04906.85565,W,0.035,,280415,,,A*76
$GPVTG,,T,0.035,N,0.065,K,A*26
$GPGGA,202158.00,2628.00205,S,04906.85565,W,1,04,1.49,43.3,M,,3,31,01,14,19,,,,,,,,,2.81,1.49,2.39*03
$GPGSV,3,1,10,01,55,220,30,03,29,232,21,0,17,138,37*71
$GPGSV,3,2,10,19,26,334,30,23,,,26,27,07,358,23,31,48,084,45*49
$G3,42,056,43*40
$GPGLL,2628.00205,S,04906.85565,W,202158.00,A,A*63
$GPRMC,202159.00,A,2628.00195,S,04906.85564,W,0.478,,280415,,,A*71
$GPVTG,,T,,M,0.478,N,0.886,K,A*2E
$GPGGA,202159.00,2628.00195,S,04906.854,1.49,43.3,M,-1.5,M,,*79
$GPGSA,A,3,31,01,14,19,,,,,,,,,2.81,1.49,2.38*02
$GPGS1,10,01,55,220,30,03,29,232,20,04,84,251,19,14,17,138,37*7A
$GPGSV,3,2,10,19,26,337,27,07,358,24,31,48,084,44*4F
$GPGSV,3,3,10,32,,,29,33,42,056,42*41
$GPGLL,262895,S,04906.85564,W,202159.00,A,A*69
$GPRMC,202200.00,A,2628.00183,S,04906.85573,W,0.674,,280415,,,A*71
$GPVTG,,T,,M,0.674,N,1.249,K,A*28
$GPGGA,202200.00,2628.00183,S,04906.85573,W,1,04$GPGSA,A,3,31,01,14,19,,,,,,,,,2.81,1.49,2.38*02
$GPGSV,3,1,10,01,55,220,30,03,29,,20,14,17,138,37*71
$GPGSV,3,2,10,19,26,335,31,23,,,27,27,07,358,24,31,48,084,43*4,32,,,29,33,42,056,42*41
$GPGLL,2628.00183,S,04906.85573,W,202200.00,A,A*67
$GPRMC,202201.00,A,2628.00185,S,04906.85573,W,0.287,,280415,,,A*7E
TG,,T,,M,0.287,N,0.532,K,A*2A
$GPGGA,202201.00,2628.00185,S,04906.85573,W,1,04,1.,*70
$GPGSA,A,3,31,01,14,19,,,,,,,,,2.81,1.49,2.38*02
$GPGSV,3,1,10,01,55,220,29,10,19,26,335,31,23,,,27,27,07,358,24,31,48,084,44*4E
$GPGSV,3,3,10,32,,,28,33,42L,2628.00185,S,04906.85573,W,202201.00,A,A*60
$GPRMC,202202.00,A,2628.00190,S,04906.85568,W,0.179,,280415,,,A*71
$GPVTG,,179,N,0.331,K,A*2D
$GPGGA,202202.00,2628.00190,S,04906.85568,W,1,04,1.49,43.4,M,-A,A,3,31,01,14,19,,,,,,,,,2.81,1.49,2.38*02
$GPGSV,3,1,10,01,55,220,29,03,29,232,4,17,138,37*7B
$GPGSV,3,2,10,19,26,335,32,23,,,28,27,07,358,23,31,48,084,44*45
$,29,33,42,056,42*41
$GPGLL,2628.00190,S,04906.85568,W,202202.00,A,A*6D
$GPRMC,202203.00,A,2628.00194,S,04906.85558,W,0.067,,280415,,,A*79
,,M,0.067,N,0.124,K,A*25
$GPGGA,202203.00,2628.00194,S,04906.85558,W,1,06,1.27,431,48,084,45*71
$GPGSV,3,3,10,32,54,183,29,33,42,056,42*7A
$GPGLL,2628.00194,S,04,A,A*6B
$GPRMC,202204.00,A,2628.00191,S,04906.85537,W,0.007,,280415,,,A*74
$GPVTG,,T,,0.014,K,A*21
$GPGGA,202204.00,2628.00191,S,04906.85537,W,1,06,1.27,43.7,M,-1.5,M,,3,31,01,14,23,19,32,,,,,,,2.44,1.27,2.09*01
$GPGSV,3,1,10,01,55,220,30,03,29,232,
$GPGSV,3,2,10,19,26,335,31,23,27,298,29,27,07,358,24,31,48,084,44*76
$GPGSV,3,330,33,42,056,42*72
$GPGLL,2628.00191,S,04906.85537,W,202204.00,A,A*60
$GPRMC,202205.00,A,2628.00185,S,04906.85525,W,0.056,,280415,,,A*77
,,M,0.056,N,0.104,K,A*25
$GPGGA,202205.00,2628.00185,S,04906.85525,W,1,06,1.27,4379
$GPGSA,A,3,31,01,14,23,19,32,,,,,,,2.44,1.27,2.09*01
$GPGSV,3,1,10,01,55,220,,251,23,14,17,138,38*79
$GPGSV,3,2,10,19,26,335,30,23,27,298,27,27,07,358,23,31,4GPGSV,3,3,10,32,54,183,29,33,42,056,42*7A
$GPGLL,2628.00185,S,04906.85525,W,20220$GPRMC,202206.00,A,2628.00173,S,04906.85520,W,0.061,,280415,,,A*7C
$GPVTG,,T,,M,0.0K,A*26
$GPGGA,202206.00,2628.00173,S,04906.85520,W,1,06,1.27,43.6,M,-1.5,M,,*77
$1,55,220,30,03,29,232,17,04,84,251,23,14,17,138,38*78
$GPGSV,3,2,10,19,26,335,30,2,23,31,48,084,45*7E
$GPGSV,3,3,10,32,54,183,29,33,42,056,42*7A
$GPGLL,2628.00173,W,202206.00,A,A*68
$GPRMC,202207.00,A,2628.00178,S,04906.85516,W,0.091,,280415,,,A*7,,T,,M,0.091,N,0.169,K,A*25
$GPGGA,202207.00,2628.00178,S,04906.85516,W,1,06,1.27GSA,A,3,31,01,14,23,19,32,,,,,,,2.44,1.27,2.09*01
$GPGSV,3,1,10,01,55,220,30,03,2,14,17,138,37*74
$GPGSV,3,2,10,19,26,335,31,23,27,298,26,27,07,358,23,31,48,084,443,10,32,54,183,29,33,42,056,42*7A
$GPGLL,2628.00178,S,04906.85516,W,202207.00,A,A$GPRMC,202208.00,A,2628.00177,S,04906.85511,W,0.163,,280415,,,A*77
$GPVTG,,T,N,0.302,K,A*26
$GPGGA,202208.00,2628.00177,S,04906.85511,W,1,06,1.27,43.7,M,-1.5,,A,3,31,01,14,23,19,32,,,,,,,2.44,1.27,2.09*01
$GPGSV,3,1,10,01,55,220,30,03,29,237A
$GPGSV,3,2,10,19,26,335,30,23,27,298,25,27,07,358,23,31,48,084,44*7C
$GPGSV,3,,29,33,42,056,42*7A
$GPGLL,2628.00177,S,04906.85511,W,202208.00,A,A*60
$GPRMC,202209.00,A,2628.00183,S,04906.85517,W,0.323,,280415,,,A*7D
$GPVTG,,T,,M,0.3K,A*25
$GPGGA,202209.00,2628.00183,S,04906.85517,W,1,06,1.27,44.0,M,-1.5,M,,*72
$1,14,23,19,32,,,,,,,2.44,1.27,2.09*01
$GPGSV,3,1,10,01,55,220,29,03,29,232,12,04,88*70
$GPGSV,3,2,10,19,26,335,32,23,27,298,25,27,07,358,23,31,48,084,44*7E
$GPGSV,83,33,33,42,056,42*71
$GPGLL,2628.00183,S,04906.85517,W,202209.00,A,A*6C
$GPRMC,202210.00,A,2628.00183,S,04906.85516,W,0.023,,280415,,,A*77
$GPVTG,,T,,M,0.023,N,0.042,K,A*24
$GPGGA,202210.00,2628.00183,S,04906.85516,W,1,23,27,07,358,23,31,48,084,45*7A
$GPGSV,3,3,10,32,54,183,33,33,42,056,43*70
$GPGL0183,S,04906.85516,W,202210.00,A,A*65
$GPRMC,202211.00,A,2628.00180,S,04906.85522,W,0.297,,280415,,,A*7F
$GPVTG,,T,,M,0.297,N,0.550,K,A*2F
$GPGGA,202211.00,2628.00180,S,04906.85522,W,1,06,1.43,43.9,M,,*72
$GPGSA,A,3,31,01,14,23,19,32,,,,,,,2.66,1.43,2.25*0D
$GPGSV,3,1,10,01,55,22098,26,27,07,358,23,31,48,084,45*7F
$GPGSV,3,3,10,32,54,183,32,33,42,056,42*70
$G906.85522,W,202211.00,A,A*60
$GPRMC,202212.00,A,2628.00180,S,04906.85514,W,0.123,,280415,,,A*75
$GPVTG,,T,,M,0.12,0.228,K,A*2B
$GPGGA,202212.00,2628.00180,S,04906.85514,W,1,05,1.43,44.0,M,-1.5,M1,01,14,19,32,,,,,,,,2.66,1.43,2.25*0C
$GPGSV,3,1,10,01,55,220,28,03,29,232,08,04,17,138,38*7F
$GPGSV,3,2,10,19,26,335,32,23,27,298,,27,07,358,22,31,48,085,44*79
180,S,04906.85514,W,202212.00,A,A*66
$GPRMC,202213.00,A,2628.00180,S,04906.85496,W,0.852,83.68,280415,,,A*5
$GPVTG,83.68,T,,M,0.852,N,1.577,K,A*03
$GPGGA,202213.00,2628.00180,S,04906.85496,.5,M,,*73
$GPGSA,A,3,31,01,14,19,32,,,,,,,,2.66,1.43,2.25*0C
$GPGSV,3,1,10,01,55232,09,04,84,251,25,14,17,138,38*77
$GPGSV,3,2,10,19,26,335,31,23,27,298,,27,07,3A
$GPGSV,3,3,10,32,54,183,31,33,42,056,43*72
$GPGLL,2628.00180,S,04906.85496,W,20C
$GPRMC,202214.00,A,2628.00180,S,04906.85485,W,0.384,,280415,,,A*7
$GPVTG,,T,,M,0.384,N,0.711,K,A*2B
$GPGGA,202214.00,2628.00180,S,04906.85485,W,1,PGSA,A,3,31,01,14,19,32,,,,,,,,2.66,1.43,2.25*0C
$GPGSV,3,1,10,01,55,220,27,03,29,51,25,14,17,138,38*77
$GPGSV,3,2,10,19,26,335,31,23,27,298,,27,07,358,,31,48,085,32,54,183,30,33,42,056,42*72
$GPGLL,2628.00180,S,04906.85485,W,202214.00,A,A*69
$GPRMC,202215.00,A,2628.00177,S,04906.85474,W,0.037,,280415,,,A*79
PVTG,,T,,M,0.037,N,0.069,K,A*28
$GPGGA,202215.00,2628.00177,S,04906.85474,W,1,05,70
$GPGSA,A,3,31,01,14,19,32,,,,,,,,2.66,1.43,2.24*0D
$GPGSV,3,1,10,01,55,220,2825,14,17,138,38*71
$GPGSV,3,2,10,19,26,335,30,23,27,298,,27,07,358,24,31,48,085,4.85474,W,202215.00,A,A*6E
$GPRMC,202216.00,A,2628.00173,S,04906.85458,W,0.113,,280415,,,A*77
$GPVT,T,,M,0.113,N,0.208,K,A*2A
$GPGGA,202216.00,2628.00173,S,04906.85458,W,1,05,1.43,4GPGSA,A,3,31,01,14,19,32,,,,,,,,2.66,1.43,2.24*0D
$GPGSV,3,1,10,01,55,220,29,03,2,251,26,14,17,138,38*70
$GPGSV,3,2,10,19,26,335,30,23,27,298,,27,07,358,24,31,48,010,32,54,183,30,33,42,056,43*73
$GPGLL,2628.00173,S,04906.85458,W,202216.00,A,A*6$GPRMC,202217.00,A,2628.00174,S,04906.85454,W,0.009,,280415,,,A*77
$3,29,232,09,04,84,251,25,14,17,138,38*79
$GPGSV,3,2,10,19,26,335,31,23,27,298,,2785,44*7C
$GPGSV,3,3,10,32,54,183,30,33,42,056,42*72
$GPGLL,2628.00174,S,04906.85A*6D
$GPRMC,202218.00,A,2628.00172,S,04906.85439,W,0.127,,280415,,,A*$GPVTG,,T,,M,0.127,N,0.235,K,A*23
$GPGGA,202218.00,2628.00172,S,04906.85439,W,1,0,M,,*73
$GPGSA,A,3,31,01,14,19,32,,,,,,,,2.66,1.43,2.24*0D
$GPGSV,3,1,10,01,55,2,25,14,17,138,38*71
$GPGSV,3,2,10,19,26,335,32,23,27,298,,27,07,358,23,31,48,085,10,32,54,183,30,33,42,056,43*73
$GPGLL,2628.00172,S,04906.85439,W,202218.00,A,A*6$GPRMC,202219.00,A,2628.00175,S,04906.85438,W,0.312,,280415,,,A*7B
$GPV,M,0.312,N,0.577,K,A*26
$GPGGA,202219.00,2628.00175,S,04906.85438,W,1,05,1.43,44.$GPGSA,A,3,31,01,14,19,32,,,,,,,,2.66,1.43,2.24*0D
$GPGSV,3,1,10,01,55,220,30,03,21,25,14,17,138,38*71
$GPGSV,3,2,10,19,26,335,31,23,27,298,,27,07,358,24,31,48,085,10,32,54,183,29,33,42,056,42*7A
$GPGLL,2628.00175,S,04906.85438,W,202219.00,A,A*6$GPRMC,202220.00,A,2628.00178,S,04906.85438,W,0.032,,280415,,,A*7D
178,S,04906.85438,W,1,05,1.43,44.5,M,-1.5,M,,*75
$GPGSA,A,3,31,01,14,19,32,,,,,,,
$GPGSV,3,1,10,01,55,220,30,03,29,232,09,04,84,251,25,14,17,138,38*71
$GPGSV,3,2,,27,298,,27,07,358,24,31,48,085,45*7D
$GPGSV,3,3,10,32,54,183,30,33,42,056,42*72,S,04906.85438,W,202220.00,A,A*6F
$GPRMC,202221.00,A,2628.00174,S,04906.85420,W,0.139,,280415,,,A*73
$,T,,M,0.139,N,0.257,K,A*28
$GPGGA,202221.00,2628.00174,S,04906.85420,W,1,06,1.43,
$GPGSA,A,3,31,01,14,23,19,32,,,,,,,2.66,1.43,2.24*0C
$GPGSV,3,1,11,01,55,220,31232,10,04,84,251,26,14,17,138,38*7A
$GPGSV,3,2,11,19,26,335,31,23,27,298,22,27,07,1,48,085,44*7D
$GPGSV,3,3,11,32,54,183,30,33,42,056,42,39,05,082,*46
$GPGLL,2628,04906.85420,W,202221.00,A,A*6B
$GPRMC,202222.00,A,2628.00172,S,04906.85422,W,0.088,,280415,,,A*7F
$GPVTG,,T,,M,0.088,N,0.163,K,A*27
$GPGGA,202222.00,2628.00172,S,04906.85422,1.43,44.4,M,-1.5,M,,*77
$GPGSA,A,3,31,01,14,19,32,,,,,,,,2.66,1.43,2.24*0D
$GPG32,10,04,84,251,27,14,17,138,38*7A
$GPGSV,3,2,11,19,26,335,30,23,27,298,,27,07,355,45*7A
$GPGSV,3,3,11,32,54,183,29,33,42,056,42,39,05,082,*4E
$GPGLL,2628.00172,22.00,A,A*6C
$GPRMC,202223.00,A,2628.00170,S,04906.85423,W,0.026,,280415,,,A*79G,,T,,M,0.026,N,0.047,K,A*24
$GPGGA,202223.00,2628.00170,S,04906.85423,W,1,05,1.4,M,,*74
$GPGSA,A,3,31,01,14,19,32,,,,,,,,2.66,1.43,2.24*0D
$GPGSV,3,1,11,01,55,204,84,251,26,14,17,138,38*72
$GPGSV,3,2,11,19,26,335,30,23,27,298,,27,07,358,23,31,39,05,082,*46
$GPGLL,2628.00170,S,04906.85423,W,202223.00,A,A*6E
$GPRMC,202224.00,A,2628.00169,S,04906.85408,W,0.378,,280415,,,A*77VTG,,T,,M,0.378,N,0.701,K,A*29
$GPGGA,202224.00,2628.00169,S,04906.85408,W,1,05,1,*71
$GPGSA,A,3,31,01,14,19,32,,,,,,,,2.66,1.43,2.24*0D
$GPGSV,3,1,11,01,55,220,,84,251,27,14,17,138,38*73
$GPGSV,3,2,11,19,26,335,29,23,27,298,,27,07,358,23,31,GSV,3,3,11,32,54,183,30,33,42,056,42,39,05,082,*46
$GPGLL,2628.00169,S,04906.8540$GPRMC,202225.00,A,2628.00167,S,04906.85395,W,0.081,,280415,,,A*7E
$GPVTM,0.081,N,0.150,K,A*2E
$GPGGA,202225.00,2628.00167,S,04906.85395,W,1,05,1.43,44.5,PGSA,A,3,31,01,14,19,32,,,,,,,,2.66,1.43,2.24*0D
$GPGSV,3,1,11,01,55,220,31,03,29,27,14,17,138,38*72
$GPGSV,3,2,11,19,26,335,30,23,27,298,,27,07,358,23,31,48,085,411,32,54,183,30,33,42,056,42,39,05,082,*46
$GPGLL,2628.00167,S,04906.85395,W,20222$GPRMC,202226.00,A,2628.00165,S,04906.85386,W,0.172,,280415,,,A*70
$GPVTG,,T72,N,0.318,K,A*2D
$GPGGA,202226.00,2628.00165,S,04906.85386,W,1,05,1.43,44.3,M,-1,14,19,32,,,,,,,,2.66,1.43,2.24*0D
$GPGSV,3,1,11,01,55,220,31,03,29,232,,04,84,251A
$GPGSV,3,2,11,19,26,335,30,23,27,298,,27,07,358,23,31,48,085,45*7A
$GPGSV,3,3,3,42,056,41,39,05,082,*45
$GPGLL,2628.00165,S,04906.85386,W,202226.00,A,A*67
$GPRMC,202227.00,A,2628.00163,S,04906.85391,W,0.019,,280415,,,A*7DVTG,,T,,M,0.019,N,0.035,K,A*2D
$GPGGA,202227.00,2628.00163,S,04906.85391,W,1,05,1.,*7D
$GPGSA,A,3,31,01,14,19,32,,,,,,,,2.66,1.43,2.24*0D
$GPGSV,3,1,11,01,55,220,34,251,27,14,17,138,38*7B
$GPGSV,3,2,11,19,26,335,30,23,27,298,,27,07,358,23,31,48,,54,183,30,33,42,056,42,39,05,082,*46
$GPGLL,2628.00163,S,04906.85391,W,202227.00,$GPRMC,202228.00,A,2628.00163,S,04906.85388,W,0.028,,280415,,,A*78
$GPVTG,,T,,,N,0.051,K,A*2D
$GPGGA,202228.00,2628.00163,S,04906.85388,W,1,05,1.43,44.6,M,-1.5,3,31,01,14,19,32,,,,,,,,2.66,1.43,2.24*0D
$GPGSV,3,1,11,01,55,220,30,03,29,232,,04138,38*7B
$GPGSV,3,2,11,19,26,335,30,23,27,298,,27,07,358,23,31,48,085,45*7A
$GPG83,30,33,42,056,41,39,05,082,*45
$GPGLL,2628.00163,S,04906.85388,W,202228.00,A,A*6$GPRMC,202229.00,A,2628.00162,S,04906.85385,W,0.110,,280415,,,A*7F
$GPVTG,,T,,M,0.111,05,1.43,44.6,M,-1.5,M,,*75
$GPGSA,A,3,31,01,14,19,32,,,,,,,,2.66,1.43,2.24*0D
55,220,30,03,29,232,,04,84,251,28,14,17,138,38*74
$GPGSV,3,2,11,19,26,335,30,23,27,31,48,085,45*7A
$GPGSV,3,3,11,32,54,183,30,33,42,056,42,39,05,082,*46
$GPGLL,2685385,W,202229.00,A,A*6C
$GPRMC,202230.00,A,2628.00158,S,04906.85379,W,0.147,,280415,,,A*7F
$GPVTM,0.147,N,0.273,K,A*27
$GPGGA,202230.00,2628.00158,S,04906.85379,W,1,05,1.43,44.61,01,14,19,32,,,,,,,,2.66,1.43,2.24*0D
$GPGSV,3,1,11,01,55,220,30,03,29,232,,04,8,38*7B
$GPGSV,3,2,11,19,26,335,29,23,27,298,,27,07,358,23,31,48,085,45*72
$GPGSV,3,42,056,42,39,05,082,*46
$GPGLL,2628.00158,S,04906.85379,W,202230.00,A,A*6E
$GPRMC,202231.00,A,2628.00157,S,04906.85373,W,0.231,,280415,,,A*79
$GPVTG,,M,0.231,N,0.428,K,A*2D
$GPGGA,202231.00,2628.00157,S,04906.85373,W,1,05,1.43,44SA,A,3,31,01,14,19,32,,,,,,,,2.66,1.43,2.24*0D
$GPGSV,3,1,11,01,55,220,29,03,29,228,14,17,138,38*7C
$GPGSV,3,2,11,19,26,335,30,23,27,298,,27,07,358,22,31,48,085,45,3,3,11,32,54,183,30,33,42,056,41,39,05,082,*45
$GPGLL,2628.00157,S,04906.85373,W231.00,A,A*6A
$GPRMC,202232.00,A,2628.00158,S,04906.85371,W,0.017,,280415,,,A*71
$GPVTG,,T,,M,0.017,N,0.031,K,A*27
$GPGGA,202232.00,2628.00158,S,04906.85371,W,1,05,1.43,44M,,*7D
$GPGSA,A,3,31,01,14,19,32,,,,,,,,2.66,1.43,2.23*0A
$GPGSV,3,1,11,01,55,22003,29,232,,04,84,251,28,14,17,138,38*7C
$GPGSV,3,2,11,19,26,335,29,23,27,298,,27,0GSV,3,3,11,32,54,183,29,33,42,056,41,39,05,082,*4D
$GPGLL,2628.00158,S,04906.85371*64
$GPRMC,202233.00,A,2628.00159,S,04906.85372,W,0.303,,280415,,,A*
$GPVTG,,T,,M,0.303,N,0.562,K,A*22
$GPGGA,202233.00,2628.00159,S,04906.85372,W,1,0.5,M,,*70
$GPGSA,A,3,31,01,14,19,32,,,,,,,,2.65,1.43,2.23*09
$GPGSV,3,1,11,01,552,,04,84,251,28,14,17,138,38*7C
$GPGSV,3,2,11,19,26,335,28,23,27,298,,27,07,358,21
$GPGSV,3,3,11,32,54,183,29,33,42,056,41,39,05,082,*4D
$GPGLL,2628.00159,S,04906.0,A,A*67
$GPRMC,202234.00,A,2628.00160,S,04906.85366,W,0.302,,280415,,,A*7D
$GPVTG,,T,,M,,0.559,K,A*2B
$GPGGA,202234.00,2628.00160,S,04906.85366,W,1,05,1.43,45.0,M,-1.5,M,31,01,14,19,32,,,,,,,,2.65,1.43,2.23*09
$GPGSV,3,1,11,01,55,220,29,03,29,232,,04,38,38*7C
$GPGSV,3,2,11,19,26,335,28,23,27,298,,27,07,358,21,31,48,085,44*70
$GPGS3,29,33,42,056,41,39,05,082,*4D
$GPGLL,2628.00160,S,04906.85366,W,202234.00,A,A*6$GPRMC,202235.00,A,2628.00158,S,04906.85361,W,0.116,,280415,,,A*77
$GPV,,M,0.116,N,0.214,K,A*22
$GPGGA,202235.00,2628.00158,S,04906.85361,W,1,05,1.43,45.,31,01,14,19,32,,,,,,,,2.65,1.43,2.23*09
$GPGSV,3,1,11,01,55,220,29,03,29,232,,0438,38*7D
$GPGSV,3,2,11,19,26,335,27,23,27,298,,27,07,358,,31,48,085,45*7D
$GPGSV,29,33,42,056,41,39,05,082,*4D
$GPGLL,2628.00158,S,04906.85361,W,202235.00,A,A*62$GPRMC,202236.00,A,2628.00157,S,04906.85350,W,0.154,,280415,,,A*7F
$GPVTG,,T54,N,0.285,K,A*2C
$GPGGA,202236.00,2628.00157,S,04906.85350,W,1,05,1.43,44.9,M,-1,A,3,31,01,14,19,32,,,,,,,,2.65,1.43,2.23*09
$GPGSV,3,1,11,01,55,220,28,03,29,232*7C
$GPGSV,3,2,11,19,26,335,28,23,27,298,,27,07,358,,31,48,085,45*72
$GPGSV,3,3,1,42,056,41,39,05,082,*4D
$GPGLL,2628.00157,S,04906.85350,W,202236.00,A,A*6C
$GPRMC,202237.00,A,2628.00158,S,04906.85343,W,0.171,,280415,,,A*74
$GPVTG,,T,,M,0.317,K,A*21
$GPGGA,202237.00,2628.00158,S,04906.85343,W,1,05,1.43,44.8,M,-1.5,M,1,14,19,32,,,,,,,,2.65,1.43,2.23*09
$GPGSV,3,1,11,01,55,220,28,03,29,232,,04,84,25$GPRMC,202238.00,A,2628.00160,S,04906.85334,W,0.037,,280415,,,A*73
$GPVTG,,T,,M,0.0,0.069,K,A*28
$GPGGA,202238.00,2628.00160,S,04906.85334,W,1,05,1.44,44.9,M,-1.5,M,,11,01,55,220,27,03,29,232,,04,84,251,30,14,17,138,38*7B
$GPGSV,3,2,11,19,26,335,27,07,358,,31,48,085,45*73
$GPGSV,3,3,11,32,54,183,28,33,42,056,42,39,05,082,*4F
906.85334,W,202238.00,A,A*64
$GPRMC,202239.00,A,2628.00163,S,04906.85326,W,0.010,,280415,,,A*7
$GPVTG,,T,,M,0.010,N,0.019,K,A*2A
$GPGGA,202239.00,2628.00163,S,04906.85326,W,1M,,*7D
$GPGSA,A,3,31,01,14,19,32,,,,,,,,2.65,1.44,2.23*0E
$GPGSV,3,1,11,01,55,220,04,84,251,30,14,17,138,37*7B
$GPGSV,3,2,11,19,26,335,30,23,27,298,,27,07,358,,31,54,183,27,33,42,056,42,39,05,082,*40
$GPGLL,2628.00163,S,04906.85326,W,202239.00$GPRMC,202240.00,A,2628.00168,S,04906.85312,W,0.330,,280415,,,A*74
PVTG,,T,,M,0.330,N,0.610,K,A*24
$GPGGA,202240.00,2628.00168,S,04906.85312,W,1,05,17C
$GPGSA,A,3,31,01,14,19,32,,,,,,,,2.65,1.44,2.23*0E
$GPGSV,3,1,11,01,55,220,28,84,251,31,14,17,138,38*75
$GPGSV,3,2,11,19,26,335,30,23,27,298,,27,07,358,,31,48,01,32,54,183,27,33,42,056,42,39,05,082,*40
